{
"type": "FeatureCollection",
"crs": { "type": "name", "properties": { "name": "urn:ogc:def:crs:OGC:1.3:CRS84" } },
"features": [
{ "type": "Feature", "properties": { "Province": "เชียงใหม่", "Region": "NR", "AWN Site Code": "103CM", "District": "สารภี", "Subdistrict": "ไชยสถาน", "EnodeB ID": 159552.0 }, "geometry": { "type": "Point", "coordinates": [ 99.03634, 18.75126 ] } },
{ "type": "Feature", "properties": { "Province": "กรุงเทพมหานคร", "Region": "BKK", "AWN Site Code": "1DKGM", "District": "ดุสิต", "Subdistrict": "ดุสิต", "EnodeB ID": 609099.0 }, "geometry": { "type": "Point", "coordinates": [ 100.508744, 13.768072 ] } },
{ "type": "Feature", "properties": { "Province": "กรุงเทพมหานคร", "Region": "BKK", "AWN Site Code": "41IBM", "District": "พญาไท", "Subdistrict": "สามเสนใน", "EnodeB ID": 606000.0 }, "geometry": { "type": "Point", "coordinates": [ 100.54804, 13.7739 ] } },
{ "type": "Feature", "properties": { "Province": "สระบุรี", "Region": "CR", "AWN Site Code": "4YNPU", "District": "แก่งคอย", "Subdistrict": "ทับกวาง", "EnodeB ID": 231154.0 }, "geometry": { "type": "Point", "coordinates": [ 101.095107, 14.599071 ] } },
{ "type": "Feature", "properties": { "Province": "นนทบุรี", "Region": "BKK", "AWN Site Code": "88TMM", "District": "บางกรวย", "Subdistrict": "วัดชลอ", "EnodeB ID": 660075.0 }, "geometry": { "type": "Point", "coordinates": [ 100.473838, 13.791648 ] } },
{ "type": "Feature", "properties": { "Province": "กรุงเทพมหานคร", "Region": "BKK", "AWN Site Code": "A101M", "District": "วังทองหลาง", "Subdistrict": "คลองเจ้าคุณสิงห์", "EnodeB ID": 625000.0 }, "geometry": { "type": "Point", "coordinates": [ 100.626795, 13.784514 ] } },
{ "type": "Feature", "properties": { "Province": "สมุทรปราการ", "Region": "BKK", "AWN Site Code": "ABB4M", "District": "บางบ่อ", "Subdistrict": "บางบ่อ", "EnodeB ID": 652002.0 }, "geometry": { "type": "Point", "coordinates": [ 100.851722, 13.631917 ] } },
{ "type": "Feature", "properties": { "Province": "เพชรบูรณ์", "Region": "NR", "AWN Site Code": "ABBOM", "District": "หนองไผ่", "Subdistrict": "หนองไผ่", "EnodeB ID": 167050.0 }, "geometry": { "type": "Point", "coordinates": [ 101.069141, 15.976774 ] } },
{ "type": "Feature", "properties": { "Province": "กรุงเทพมหานคร", "Region": "BKK", "AWN Site Code": "ABCDM", "District": "บางกะปิ", "Subdistrict": "หัวหมาก", "EnodeB ID": 627000.0 }, "geometry": { "type": "Point", "coordinates": [ 100.628784, 13.752933 ] } },
{ "type": "Feature", "properties": { "Province": "สกลนคร", "Region": "NER", "AWN Site Code": "ABDBM", "District": "เมืองสกลนคร", "Subdistrict": "ธาตุเชิงชุม", "EnodeB ID": 411749.0 }, "geometry": { "type": "Point", "coordinates": [ 104.145857, 17.168807 ] } },
{ "type": "Feature", "properties": { "Province": "กรุงเทพมหานคร", "Region": "BKK", "AWN Site Code": "ABDTM", "District": "บางกะปิ", "Subdistrict": "คลองจั่น", "EnodeB ID": 627061.0 }, "geometry": { "type": "Point", "coordinates": [ 100.630911, 13.77049 ] } },
{ "type": "Feature", "properties": { "Province": "ชลบุรี", "Region": "EEC", "AWN Site Code": "ABHTM", "District": "สัตหีบ", "Subdistrict": "นาจอมเทียน", "EnodeB ID": 550003.0 }, "geometry": { "type": "Point", "coordinates": [ 100.91161, 12.84067 ] } },
{ "type": "Feature", "properties": { "Province": "ลำปาง", "Region": "NR", "AWN Site Code": "ABLPM", "District": "เมืองลำปาง", "Subdistrict": "เวียงเหนือ", "EnodeB ID": 152001.0 }, "geometry": { "type": "Point", "coordinates": [ 99.49919, 18.29734 ] } },
{ "type": "Feature", "properties": { "Province": "มหาสารคาม", "Region": "NER", "AWN Site Code": "ABMKM", "District": "เมืองมหาสารคาม", "Subdistrict": "ตลาด", "EnodeB ID": 411252.0 }, "geometry": { "type": "Point", "coordinates": [ 103.296572, 16.184986 ] } },
{ "type": "Feature", "properties": { "Province": "หนองคาย", "Region": "NER", "AWN Site Code": "ABONM", "District": "เมืองหนองคาย", "Subdistrict": "หาดคำ", "EnodeB ID": 432557.0 }, "geometry": { "type": "Point", "coordinates": [ 102.807222, 17.931562 ] } },
{ "type": "Feature", "properties": { "Province": "นครนายก", "Region": "Non-EEC", "AWN Site Code": "ABSMM", "District": "องครักษ์", "Subdistrict": "คลองใหญ่", "EnodeB ID": 590047.0 }, "geometry": { "type": "Point", "coordinates": [ 100.98679, 14.14047 ] } },
{ "type": "Feature", "properties": { "Province": "สระบุรี", "Region": "CR", "AWN Site Code": "ABSRI", "District": "เมืองสระบุรี", "Subdistrict": "ปากเพรียว", "EnodeB ID": 231481.0 }, "geometry": { "type": "Point", "coordinates": [ 100.909632, 14.540564 ] } },
{ "type": "Feature", "properties": { "Province": "หนองบัวลำภู", "Region": "NER", "AWN Site Code": "ACKDC", "District": "นากลาง", "Subdistrict": "กุดดินจี่", "EnodeB ID": 432260.0 }, "geometry": { "type": "Point", "coordinates": [ 102.29128, 17.3295 ] } },
{ "type": "Feature", "properties": { "Province": "กรุงเทพมหานคร", "Region": "BKK", "AWN Site Code": "ACKUM", "District": "จตุจักร", "Subdistrict": "ลาดยาว", "EnodeB ID": 622000.0 }, "geometry": { "type": "Point", "coordinates": [ 100.57371, 13.852058 ] } },
{ "type": "Feature", "properties": { "Province": "นนทบุรี", "Region": "BKK", "AWN Site Code": "ACLEM", "District": "เมืองนนทบุรี", "Subdistrict": "ท่าทราย", "EnodeB ID": 634000.0 }, "geometry": { "type": "Point", "coordinates": [ 100.501694, 13.877111 ] } },
{ "type": "Feature", "properties": { "Province": "กรุงเทพมหานคร", "Region": "BKK", "AWN Site Code": "ACMKM", "District": "สายไหม", "Subdistrict": "สายไหม", "EnodeB ID": 654080.0 }, "geometry": { "type": "Point", "coordinates": [ 100.642714, 13.921728 ] } },
{ "type": "Feature", "properties": { "Province": "อำนาจเจริญ", "Region": "NER", "AWN Site Code": "ACRCH", "District": "เมืองอำนาจเจริญ", "Subdistrict": "บุ่ง", "EnodeB ID": 411869.0 }, "geometry": { "type": "Point", "coordinates": [ 104.62343, 15.89836 ] } },
{ "type": "Feature", "properties": { "Province": "อำนาจเจริญ", "Region": "NER", "AWN Site Code": "ACRHM", "District": "เมืองอำนาจเจริญ", "Subdistrict": "บุ่ง", "EnodeB ID": 410002.0 }, "geometry": { "type": "Point", "coordinates": [ 104.624731, 15.861641 ] } },
{ "type": "Feature", "properties": { "Province": "อำนาจเจริญ", "Region": "NER", "AWN Site Code": "ACRUM", "District": "เมืองอำนาจเจริญ", "Subdistrict": "ไก่คำ", "EnodeB ID": 412496.0 }, "geometry": { "type": "Point", "coordinates": [ 104.63328, 15.791391 ] } },
{ "type": "Feature", "properties": { "Province": "สุรินทร์", "Region": "NER", "AWN Site Code": "ACSRM", "District": "เมืองสุรินทร์", "Subdistrict": "นอกเมือง", "EnodeB ID": 410963.0 }, "geometry": { "type": "Point", "coordinates": [ 103.510565, 14.843133 ] } },
{ "type": "Feature", "properties": { "Province": "ชลบุรี", "Region": "EEC", "AWN Site Code": "ACTAM", "District": "ศรีราชา", "Subdistrict": "บ่อวิน", "EnodeB ID": 551582.0 }, "geometry": { "type": "Point", "coordinates": [ 101.087625, 13.000489 ] } },
{ "type": "Feature", "properties": { "Province": "ระยอง", "Region": "EEC", "AWN Site Code": "ACTHM", "District": "ปลวกแดง", "Subdistrict": "มาบยางพร", "EnodeB ID": 550008.0 }, "geometry": { "type": "Point", "coordinates": [ 101.10808, 12.94316 ] } },
{ "type": "Feature", "properties": { "Province": "กรุงเทพมหานคร", "Region": "BKK", "AWN Site Code": "ACTNM", "District": "บางแค", "Subdistrict": "บางไผ่", "EnodeB ID": 666000.0 }, "geometry": { "type": "Point", "coordinates": [ 100.371387, 13.732698 ] } },
{ "type": "Feature", "properties": { "Province": "กรุงเทพมหานคร", "Region": "BKK", "AWN Site Code": "ACUTM", "District": "บางกะปิ", "Subdistrict": "หัวหมาก", "EnodeB ID": 627002.0 }, "geometry": { "type": "Point", "coordinates": [ 100.628886, 13.761444 ] } },
{ "type": "Feature", "properties": { "Province": "บุรีรัมย์", "Region": "NER", "AWN Site Code": "ADANM", "District": "บ้านด่าน", "Subdistrict": "บ้านด่าน", "EnodeB ID": 411736.0 }, "geometry": { "type": "Point", "coordinates": [ 103.16608, 15.07911 ] } },
{ "type": "Feature", "properties": { "Province": "ขอนแก่น", "Region": "NER", "AWN Site Code": "ADNGM", "District": "อุบลรัตน์", "Subdistrict": "บ้านดง", "EnodeB ID": 430460.0 }, "geometry": { "type": "Point", "coordinates": [ 102.69137, 16.806 ] } },
{ "type": "Feature", "properties": { "Province": "สุรินทร์", "Region": "NER", "AWN Site Code": "ADRCM", "District": "เมืองสุรินทร์", "Subdistrict": "นาบัว", "EnodeB ID": 411893.0 }, "geometry": { "type": "Point", "coordinates": [ 103.438, 14.7788 ] } },
{ "type": "Feature", "properties": { "Province": "สระบุรี", "Region": "CR", "AWN Site Code": "ADSNM", "District": "เมืองสระบุรี", "Subdistrict": "ปากเพรียว", "EnodeB ID": 231336.0 }, "geometry": { "type": "Point", "coordinates": [ 100.9162, 14.50895 ] } },
{ "type": "Feature", "properties": { "Province": "ภูเก็ต", "Region": "SR", "AWN Site Code": "ADWBM", "District": "ถลาง", "Subdistrict": "สาคู", "EnodeB ID": 320172.0 }, "geometry": { "type": "Point", "coordinates": [ 98.278146, 8.046039 ] } },
{ "type": "Feature", "properties": { "Province": "ลพบุรี", "Region": "CR", "AWN Site Code": "AFA1M", "District": "เมืองลพบุรี", "Subdistrict": "ท่าแค", "EnodeB ID": 220934.0 }, "geometry": { "type": "Point", "coordinates": [ 100.63, 14.88394 ] } },
{ "type": "Feature", "properties": { "Province": "กรุงเทพมหานคร", "Region": "BKK", "AWN Site Code": "AFCMM", "District": "ดอนเมือง", "Subdistrict": "สนามบิน", "EnodeB ID": 631000.0 }, "geometry": { "type": "Point", "coordinates": [ 100.618704, 13.914254 ] } },
{ "type": "Feature", "properties": { "Province": "ระยอง", "Region": "EEC", "AWN Site Code": "AGNPM", "District": "วังจันทร์", "Subdistrict": "ชุมแสง", "EnodeB ID": 550013.0 }, "geometry": { "type": "Point", "coordinates": [ 101.54924, 12.96653 ] } },
{ "type": "Feature", "properties": { "Province": "นครราชสีมา", "Region": "NER", "AWN Site Code": "AHCPM", "District": "ชุมพวง", "Subdistrict": "ท่าลาด", "EnodeB ID": 412595.0 }, "geometry": { "type": "Point", "coordinates": [ 102.70728, 15.30108 ] } },
{ "type": "Feature", "properties": { "Province": "เชียงใหม่", "Region": "NR", "AWN Site Code": "AHMHM", "District": "เมืองเชียงใหม่", "Subdistrict": "สุเทพ", "EnodeB ID": 159431.0 }, "geometry": { "type": "Point", "coordinates": [ 98.939035, 18.764756 ] } },
{ "type": "Feature", "properties": { "Province": "น่าน", "Region": "NR", "AWN Site Code": "AIANM", "District": "เมืองน่าน", "Subdistrict": "ในเวียง", "EnodeB ID": 155001.0 }, "geometry": { "type": "Point", "coordinates": [ 100.778, 18.7799 ] } },
{ "type": "Feature", "properties": { "Province": "สมุทรปราการ", "Region": "BKK", "AWN Site Code": "AIJEA", "District": "บางพลี", "Subdistrict": "หนองปรือ", "EnodeB ID": 650588.0 }, "geometry": { "type": "Point", "coordinates": [ 100.753514, 13.689399 ] } },
{ "type": "Feature", "properties": { "Province": "สมุทรปราการ", "Region": "BKK", "AWN Site Code": "AIJWA", "District": "บางพลี", "Subdistrict": "ราชาเทวะ", "EnodeB ID": 650732.0 }, "geometry": { "type": "Point", "coordinates": [ 100.746835, 13.691631 ] } },
{ "type": "Feature", "properties": { "Province": "นครศรีธรรมราช", "Region": "SR", "AWN Site Code": "AILOM", "District": "จุฬาภรณ์", "Subdistrict": "ทุ่งโพธิ์", "EnodeB ID": 300152.0 }, "geometry": { "type": "Point", "coordinates": [ 99.79636, 8.11453 ] } },
{ "type": "Feature", "properties": { "Province": "ระยอง", "Region": "EEC", "AWN Site Code": "AINGM", "District": "นิคมพัฒนา", "Subdistrict": "มาบข่า", "EnodeB ID": 551585.0 }, "geometry": { "type": "Point", "coordinates": [ 101.176152, 12.783711 ] } },
{ "type": "Feature", "properties": { "Province": "กรุงเทพมหานคร", "Region": "BKK", "AWN Site Code": "AIR1M", "District": "ดอนเมือง", "Subdistrict": "สีกัน", "EnodeB ID": 631001.0 }, "geometry": { "type": "Point", "coordinates": [ 100.5993, 13.92457 ] } },
{ "type": "Feature", "properties": { "Province": "สมุทรปราการ", "Region": "BKK", "AWN Site Code": "AIRAA", "District": "บางพลี", "Subdistrict": "หนองปรือ", "EnodeB ID": 650588.0 }, "geometry": { "type": "Point", "coordinates": [ 100.755174, 13.6942 ] } },
{ "type": "Feature", "properties": { "Province": "สมุทรปราการ", "Region": "BKK", "AWN Site Code": "AIRBA", "District": "บางพลี", "Subdistrict": "หนองปรือ", "EnodeB ID": 650588.0 }, "geometry": { "type": "Point", "coordinates": [ 100.756767, 13.689919 ] } },
{ "type": "Feature", "properties": { "Province": "สมุทรปราการ", "Region": "BKK", "AWN Site Code": "AIRCA", "District": "บางพลี", "Subdistrict": "หนองปรือ", "EnodeB ID": 650588.0 }, "geometry": { "type": "Point", "coordinates": [ 100.753577, 13.688216 ] } },
{ "type": "Feature", "properties": { "Province": "สมุทรปราการ", "Region": "BKK", "AWN Site Code": "AIREA", "District": "บางพลี", "Subdistrict": "ราชาเทวะ", "EnodeB ID": 650732.0 }, "geometry": { "type": "Point", "coordinates": [ 100.745919, 13.689919 ] } },
{ "type": "Feature", "properties": { "Province": "สมุทรปราการ", "Region": "BKK", "AWN Site Code": "AIRFA", "District": "บางพลี", "Subdistrict": "ราชาเทวะ", "EnodeB ID": 650732.0 }, "geometry": { "type": "Point", "coordinates": [ 100.744224, 13.693081 ] } },
{ "type": "Feature", "properties": { "Province": "สมุทรปราการ", "Region": "BKK", "AWN Site Code": "AIRGA", "District": "บางพลี", "Subdistrict": "หนองปรือ", "EnodeB ID": 650732.0 }, "geometry": { "type": "Point", "coordinates": [ 100.747479, 13.695814 ] } },
{ "type": "Feature", "properties": { "Province": "สมุทรปราการ", "Region": "BKK", "AWN Site Code": "AIRMM", "District": "บางพลี", "Subdistrict": "หนองปรือ", "EnodeB ID": 650531.0 }, "geometry": { "type": "Point", "coordinates": [ 100.753258, 13.696351 ] } },
{ "type": "Feature", "properties": { "Province": "นราธิวาส", "Region": "SR", "AWN Site Code": "AISAM", "District": "เจาะไอร้อง", "Subdistrict": "บูกิต", "EnodeB ID": 380070.0 }, "geometry": { "type": "Point", "coordinates": [ 101.833599, 6.175197 ] } },
{ "type": "Feature", "properties": { "Province": "ตรัง", "Region": "SR", "AWN Site Code": "AISTM", "District": "เมืองตรัง", "Subdistrict": "บางรัก", "EnodeB ID": 365001.0 }, "geometry": { "type": "Point", "coordinates": [ 99.57288, 7.55387 ] } },
{ "type": "Feature", "properties": { "Province": "นราธิวาส", "Region": "SR", "AWN Site Code": "AIYAM", "District": "ศรีสาคร", "Subdistrict": "ศรีสาคร", "EnodeB ID": 380178.0 }, "geometry": { "type": "Point", "coordinates": [ 101.51352, 6.17131 ] } },
{ "type": "Feature", "properties": { "Province": "ยะลา", "Region": "SR", "AWN Site Code": "AIYWM", "District": "เบตง", "Subdistrict": "อัยเยอร์เวง", "EnodeB ID": 385104.0 }, "geometry": { "type": "Point", "coordinates": [ 101.17905, 5.91818 ] } },
{ "type": "Feature", "properties": { "Province": "กรุงเทพมหานคร", "Region": "BKK", "AWN Site Code": "AK19M", "District": "ดอนเมือง", "Subdistrict": "ดอนเมือง", "EnodeB ID": 630000.0 }, "geometry": { "type": "Point", "coordinates": [ 100.577529, 13.919015 ] } },
{ "type": "Feature", "properties": { "Province": "ภูเก็ต", "Region": "SR", "AWN Site Code": "AKAMM", "District": "เมืองภูเก็ต", "Subdistrict": "วิชิต", "EnodeB ID": 320001.0 }, "geometry": { "type": "Point", "coordinates": [ 98.39937, 7.82097 ] } },
{ "type": "Feature", "properties": { "Province": "นครราชสีมา", "Region": "NER", "AWN Site Code": "AKAOM", "District": "เมืองนครราชสีมา", "Subdistrict": "บ้านเกาะ", "EnodeB ID": 410249.0 }, "geometry": { "type": "Point", "coordinates": [ 102.127103, 15.003556 ] } },
{ "type": "Feature", "properties": { "Province": "ระยอง", "Region": "EEC", "AWN Site Code": "AKGRM", "District": "เมืองระยอง", "Subdistrict": "เพ", "EnodeB ID": 550018.0 }, "geometry": { "type": "Point", "coordinates": [ 101.456011, 12.575575 ] } },
{ "type": "Feature", "properties": { "Province": "ชัยภูมิ", "Region": "NER", "AWN Site Code": "AKHNM", "District": "คอนสาร", "Subdistrict": "โนนคูณ", "EnodeB ID": 412027.0 }, "geometry": { "type": "Point", "coordinates": [ 102.05864, 16.50041 ] } },
{ "type": "Feature", "properties": { "Province": "ชลบุรี", "Region": "EEC", "AWN Site Code": "AKKLM", "District": "ศรีราชา", "Subdistrict": "สุรศักดิ์", "EnodeB ID": 551587.0 }, "geometry": { "type": "Point", "coordinates": [ 100.95251, 13.10501 ] } },
{ "type": "Feature", "properties": { "Province": "ร้อยเอ็ด", "Region": "NER", "AWN Site Code": "AKKMM", "District": "โพธิ์ชัย", "Subdistrict": "อัคคะคำ", "EnodeB ID": 432770.0 }, "geometry": { "type": "Point", "coordinates": [ 103.749096, 16.385545 ] } },
{ "type": "Feature", "properties": { "Province": "สกลนคร", "Region": "NER", "AWN Site Code": "AKMNM", "District": "อากาศอำนวย", "Subdistrict": "อากาศ", "EnodeB ID": 430037.0 }, "geometry": { "type": "Point", "coordinates": [ 103.97649, 17.58427 ] } },
{ "type": "Feature", "properties": { "Province": "เพชรบูรณ์", "Region": "NR", "AWN Site Code": "AKNPM", "District": "เมืองเพชรบูรณ์", "Subdistrict": "ป่าเลา", "EnodeB ID": 167001.0 }, "geometry": { "type": "Point", "coordinates": [ 101.10004, 16.44583 ] } },
{ "type": "Feature", "properties": { "Province": "กาฬสินธุ์", "Region": "NER", "AWN Site Code": "AKNSM", "District": "เมืองกาฬสินธุ์", "Subdistrict": "กาฬสินธุ์", "EnodeB ID": 410010.0 }, "geometry": { "type": "Point", "coordinates": [ 103.509644, 16.424877 ] } },
{ "type": "Feature", "properties": { "Province": "เชียงใหม่", "Region": "NR", "AWN Site Code": "AKOKM", "District": "อมก๋อย", "Subdistrict": "อมก๋อย", "EnodeB ID": 159207.0 }, "geometry": { "type": "Point", "coordinates": [ 98.28794, 17.97575 ] } },
{ "type": "Feature", "properties": { "Province": "นนทบุรี", "Region": "BKK", "AWN Site Code": "AKRAM", "District": "ปากเกร็ด", "Subdistrict": "อ้อมเกร็ด", "EnodeB ID": 663000.0 }, "geometry": { "type": "Point", "coordinates": [ 100.44207, 13.90575 ] } },
{ "type": "Feature", "properties": { "Province": "จันทบุรี", "Region": "Non-EEC", "AWN Site Code": "AKRIM", "District": "มะขาม", "Subdistrict": "อ่างคีรี", "EnodeB ID": 590256.0 }, "geometry": { "type": "Point", "coordinates": [ 102.21954, 12.64848 ] } },
{ "type": "Feature", "properties": { "Province": "นครราชสีมา", "Region": "NER", "AWN Site Code": "AKRMM", "District": "เมืองนครราชสีมา", "Subdistrict": "สุรนารี", "EnodeB ID": 410021.0 }, "geometry": { "type": "Point", "coordinates": [ 102.018849, 14.875632 ] } },
{ "type": "Feature", "properties": { "Province": "หนองคาย", "Region": "NER", "AWN Site Code": "AKRRM", "District": "เมืองหนองคาย", "Subdistrict": "หนองกอมเกาะ", "EnodeB ID": 411824.0 }, "geometry": { "type": "Point", "coordinates": [ 102.748141, 17.803187 ] } },
{ "type": "Feature", "properties": { "Province": "นนทบุรี", "Region": "BKK", "AWN Site Code": "AKSMM", "District": "ปากเกร็ด", "Subdistrict": "อ้อมเกร็ด", "EnodeB ID": 663001.0 }, "geometry": { "type": "Point", "coordinates": [ 100.45297, 13.910935 ] } },
{ "type": "Feature", "properties": { "Province": "เชียงใหม่", "Region": "NR", "AWN Site Code": "AKSTM", "District": "ฝาง", "Subdistrict": "ม่อนปิ่น", "EnodeB ID": 150556.0 }, "geometry": { "type": "Point", "coordinates": [ 99.044219, 19.910733 ] } },
{ "type": "Feature", "properties": { "Province": "บึงกาฬ", "Region": "NER", "AWN Site Code": "AKUGM", "District": "ปากคาด", "Subdistrict": "นากั้ง", "EnodeB ID": 431975.0 }, "geometry": { "type": "Point", "coordinates": [ 103.28108, 18.3958 ] } },
{ "type": "Feature", "properties": { "Province": "สุรินทร์", "Region": "NER", "AWN Site Code": "AKUNM", "District": "ปราสาท", "Subdistrict": "หนองใหญ่", "EnodeB ID": 412825.0 }, "geometry": { "type": "Point", "coordinates": [ 103.45516, 14.5878 ] } },
{ "type": "Feature", "properties": { "Province": "ภูเก็ต", "Region": "SR", "AWN Site Code": "AKWAN", "District": "เมืองภูเก็ต", "Subdistrict": "รัษฎา", "EnodeB ID": 320002.0 }, "geometry": { "type": "Point", "coordinates": [ 98.374348, 7.899405 ] } },
{ "type": "Feature", "properties": { "Province": "สกลนคร", "Region": "NER", "AWN Site Code": "ALAOM", "District": "เจริญศิลป์", "Subdistrict": "บ้านเหล่า", "EnodeB ID": 430038.0 }, "geometry": { "type": "Point", "coordinates": [ 103.53575, 17.72522 ] } },
{ "type": "Feature", "properties": { "Province": "กรุงเทพมหานคร", "Region": "BKK", "AWN Site Code": "AM28M", "District": "บางขุนเทียน", "Subdistrict": "ท่าข้าม", "EnodeB ID": 668000.0 }, "geometry": { "type": "Point", "coordinates": [ 100.449513, 13.645764 ] } },
{ "type": "Feature", "properties": { "Province": "กรุงเทพมหานคร", "Region": "BKK", "AWN Site Code": "AM31M", "District": "บางขุนเทียน", "Subdistrict": "ท่าข้าม", "EnodeB ID": 668072.0 }, "geometry": { "type": "Point", "coordinates": [ 100.4593, 13.6469 ] } },
{ "type": "Feature", "properties": { "Province": "กรุงเทพมหานคร", "Region": "BKK", "AWN Site Code": "AMAPM", "District": "ดอนเมือง", "Subdistrict": "ดอนเมือง", "EnodeB ID": 630002.0 }, "geometry": { "type": "Point", "coordinates": [ 100.600706, 13.920853 ] } },
{ "type": "Feature", "properties": { "Province": "กำแพงเพชร", "Region": "NR", "AWN Site Code": "AMARM", "District": "โกสัมพีนคร", "Subdistrict": "ลานดอกไม้ตก", "EnodeB ID": 162088.0 }, "geometry": { "type": "Point", "coordinates": [ 99.449036, 16.588627 ] } },
{ "type": "Feature", "properties": { "Province": "กรุงเทพมหานคร", "Region": "BKK", "AWN Site Code": "AMC2M", "District": "บางขุนเทียน", "Subdistrict": "ท่าข้าม", "EnodeB ID": 668081.0 }, "geometry": { "type": "Point", "coordinates": [ 100.45235, 13.635379 ] } },
{ "type": "Feature", "properties": { "Province": "ชลบุรี", "Region": "EEC", "AWN Site Code": "AMCKM", "District": "พานทอง", "Subdistrict": "มาบโป่ง", "EnodeB ID": 552482.0 }, "geometry": { "type": "Point", "coordinates": [ 101.104412, 13.458009 ] } },
{ "type": "Feature", "properties": { "Province": "อำนาจเจริญ", "Region": "NER", "AWN Site Code": "AMCTM", "District": "เมืองอำนาจเจริญ", "Subdistrict": "บุ่ง", "EnodeB ID": 410742.0 }, "geometry": { "type": "Point", "coordinates": [ 104.61681, 15.884878 ] } },
{ "type": "Feature", "properties": { "Province": "สุรินทร์", "Region": "NER", "AWN Site Code": "AMETM", "District": "สำโรงทาบ", "Subdistrict": "เสม็จ", "EnodeB ID": 413065.0 }, "geometry": { "type": "Point", "coordinates": [ 103.8694, 15.07709 ] } },
{ "type": "Feature", "properties": { "Province": "ชลบุรี", "Region": "EEC", "AWN Site Code": "AMNKM", "District": "เมืองชลบุรี", "Subdistrict": "ดอนหัวฬ่อ", "EnodeB ID": 553372.0 }, "geometry": { "type": "Point", "coordinates": [ 101.042083, 13.443363 ] } },
{ "type": "Feature", "properties": { "Province": "แม่ฮ่องสอน", "Region": "NR", "AWN Site Code": "AMNSM", "District": "แม่ลาน้อย", "Subdistrict": "แม่ลาน้อย", "EnodeB ID": 158029.0 }, "geometry": { "type": "Point", "coordinates": [ 97.935852, 18.383562 ] } },
{ "type": "Feature", "properties": { "Province": "ขอนแก่น", "Region": "NER", "AWN Site Code": "AMPLB", "District": "เมืองขอนแก่น", "Subdistrict": "พระลับ", "EnodeB ID": 410058.0 }, "geometry": { "type": "Point", "coordinates": [ 102.88602, 16.42748 ] } },
{ "type": "Feature", "properties": { "Province": "กรุงเทพมหานคร", "Region": "BKK", "AWN Site Code": "AMRTM", "District": null, "Subdistrict": null, "EnodeB ID": null }, "geometry": { "type": "Point", "coordinates": [ 100.424631, 13.706417 ] } },
{ "type": "Feature", "properties": { "Province": "นครปฐม", "Region": "CR", "AWN Site Code": "AMS14", "District": "เมืองนครปฐม", "Subdistrict": "บ่อพลับ", "EnodeB ID": 210086.0 }, "geometry": { "type": "Point", "coordinates": [ 100.079573, 13.83092 ] } },
{ "type": "Feature", "properties": { "Province": "แม่ฮ่องสอน", "Region": "NR", "AWN Site Code": "AMSNM", "District": "เมืองแม่ฮ่องสอน", "Subdistrict": "ปางหมู", "EnodeB ID": 158196.0 }, "geometry": { "type": "Point", "coordinates": [ 97.993, 19.28924 ] } },
{ "type": "Feature", "properties": { "Province": "สระบุรี", "Region": "CR", "AWN Site Code": "AMSTD", "District": "เมืองสระบุรี", "Subdistrict": "ปากข้าวสาร", "EnodeB ID": 231457.0 }, "geometry": { "type": "Point", "coordinates": [ 100.92385, 14.51348 ] } },
{ "type": "Feature", "properties": { "Province": "ชลบุรี", "Region": "EEC", "AWN Site Code": "AMTAM", "District": "เมืองชลบุรี", "Subdistrict": "ดอนหัวฬ่อ", "EnodeB ID": 550037.0 }, "geometry": { "type": "Point", "coordinates": [ 101.031, 13.4304 ] } },
{ "type": "Feature", "properties": { "Province": "กรุงเทพมหานคร", "Region": "BKK", "AWN Site Code": "AN20M", "District": "สายไหม", "Subdistrict": "สายไหม", "EnodeB ID": 631003.0 }, "geometry": { "type": "Point", "coordinates": [ 100.632064, 13.936692 ] } },
{ "type": "Feature", "properties": { "Province": "สมุทรปราการ", "Region": "BKK", "AWN Site Code": "ANABM", "District": "บางพลี", "Subdistrict": "บางพลีใหญ่", "EnodeB ID": 646000.0 }, "geometry": { "type": "Point", "coordinates": [ 100.702314, 13.64333 ] } },
{ "type": "Feature", "properties": { "Province": "สุรินทร์", "Region": "NER", "AWN Site Code": "ANBAM", "District": "ท่าตูม", "Subdistrict": "บะ", "EnodeB ID": 412936.0 }, "geometry": { "type": "Point", "coordinates": [ 103.55873, 15.21897 ] } },
{ "type": "Feature", "properties": { "Province": "ภูเก็ต", "Region": "SR", "AWN Site Code": "ANBOM", "District": "เมืองภูเก็ต", "Subdistrict": "วิชิต", "EnodeB ID": 320003.0 }, "geometry": { "type": "Point", "coordinates": [ 98.393032, 7.837209 ] } },
{ "type": "Feature", "properties": { "Province": "กรุงเทพมหานคร", "Region": "BKK", "AWN Site Code": "ANCKM", "District": "ทวีวัฒนา", "Subdistrict": "ทวีวัฒนา", "EnodeB ID": 666001.0 }, "geometry": { "type": "Point", "coordinates": [ 100.34346, 13.742303 ] } },
{ "type": "Feature", "properties": { "Province": "กรุงเทพมหานคร", "Region": "BKK", "AWN Site Code": "ANCRM", "District": "บางขุนเทียน", "Subdistrict": "ท่าข้าม", "EnodeB ID": 667000.0 }, "geometry": { "type": "Point", "coordinates": [ 100.448758, 13.659941 ] } },
{ "type": "Feature", "properties": { "Province": "กรุงเทพมหานคร", "Region": "BKK", "AWN Site Code": "ANG1M", "District": "คลองเตย", "Subdistrict": "คลองเตย", "EnodeB ID": 613002.0 }, "geometry": { "type": "Point", "coordinates": [ 100.57025, 13.711878 ] } },
{ "type": "Feature", "properties": { "Province": "นครราชสีมา", "Region": "NER", "AWN Site Code": "ANGHM", "District": "ปักธงชัย", "Subdistrict": "ธงชัยเหนือ", "EnodeB ID": 410692.0 }, "geometry": { "type": "Point", "coordinates": [ 102.055872, 14.811244 ] } },
{ "type": "Feature", "properties": { "Province": "ชลบุรี", "Region": "EEC", "AWN Site Code": "ANKDM", "District": "ศรีราชา", "Subdistrict": "บึง", "EnodeB ID": 550042.0 }, "geometry": { "type": "Point", "coordinates": [ 101.01591, 13.04842 ] } },
{ "type": "Feature", "properties": { "Province": "ศรีสะเกษ", "Region": "NER", "AWN Site Code": "ANKHM", "District": "กันทรารมย์", "Subdistrict": "ดู่", "EnodeB ID": 412596.0 }, "geometry": { "type": "Point", "coordinates": [ 104.50201, 15.10081 ] } },
{ "type": "Feature", "properties": { "Province": "นครพนม", "Region": "NER", "AWN Site Code": "ANKOM", "District": "โพนสวรรค์", "Subdistrict": "บ้านค้อ", "EnodeB ID": 431336.0 }, "geometry": { "type": "Point", "coordinates": [ 104.2393, 17.43353 ] } },
{ "type": "Feature", "properties": { "Province": "น่าน", "Region": "NR", "AWN Site Code": "ANLIM", "District": "เวียงสา", "Subdistrict": "อ่ายนาไลย", "EnodeB ID": 155026.0 }, "geometry": { "type": "Point", "coordinates": [ 100.702, 18.54523 ] } },
{ "type": "Feature", "properties": { "Province": "กรุงเทพมหานคร", "Region": "BKK", "AWN Site Code": "ANMBM", "District": "ปทุมวัน", "Subdistrict": "ปทุมวัน", "EnodeB ID": 601000.0 }, "geometry": { "type": "Point", "coordinates": [ 100.536543, 13.733203 ] } },
{ "type": "Feature", "properties": { "Province": "ตรัง", "Region": "SR", "AWN Site Code": "ANMBO", "District": "กันตัง", "Subdistrict": "บางเป้า", "EnodeB ID": 365324.0 }, "geometry": { "type": "Point", "coordinates": [ 99.540997, 7.398127 ] } },
{ "type": "Feature", "properties": { "Province": "กรุงเทพมหานคร", "Region": "BKK", "AWN Site Code": "ANMSM", "District": "ราษฎร์บูรณะ", "Subdistrict": "บางปะกอก", "EnodeB ID": 641000.0 }, "geometry": { "type": "Point", "coordinates": [ 100.489061, 13.66284 ] } },
{ "type": "Feature", "properties": { "Province": "สกลนคร", "Region": "NER", "AWN Site Code": "ANMUM", "District": "พังโคน", "Subdistrict": "พังโคน", "EnodeB ID": 411704.0 }, "geometry": { "type": "Point", "coordinates": [ 103.71364, 17.37117 ] } },
{ "type": "Feature", "properties": { "Province": "ระยอง", "Region": "EEC", "AWN Site Code": "ANNLM", "District": "ปลวกแดง", "Subdistrict": "แม่น้ำคู้", "EnodeB ID": 551595.0 }, "geometry": { "type": "Point", "coordinates": [ 101.25255, 12.9212 ] } },
{ "type": "Feature", "properties": { "Province": "อุบลราชธานี", "Region": "NER", "AWN Site Code": "ANPAM", "District": "เหล่าเสือโก้ก", "Subdistrict": "เหล่าเสือโก้ก", "EnodeB ID": 412826.0 }, "geometry": { "type": "Point", "coordinates": [ 104.95054, 15.43995 ] } },
{ "type": "Feature", "properties": { "Province": "อุดรธานี", "Region": "NER", "AWN Site Code": "ANPLM", "District": "หนองหาน", "Subdistrict": "หนองหาน", "EnodeB ID": 411467.0 }, "geometry": { "type": "Point", "coordinates": [ 103.09772, 17.36149 ] } },
{ "type": "Feature", "properties": { "Province": "นนทบุรี", "Region": "BKK", "AWN Site Code": "ANPSM", "District": "เมืองนนทบุรี", "Subdistrict": "บางกระสอ", "EnodeB ID": 634001.0 }, "geometry": { "type": "Point", "coordinates": [ 100.497523, 13.872645 ] } },
{ "type": "Feature", "properties": { "Province": "กรุงเทพมหานคร", "Region": "BKK", "AWN Site Code": "ANRKM", "District": "มีนบุรี", "Subdistrict": "มีนบุรี", "EnodeB ID": 670000.0 }, "geometry": { "type": "Point", "coordinates": [ 100.74497, 13.78765 ] } },
{ "type": "Feature", "properties": { "Province": "บึงกาฬ", "Region": "NER", "AWN Site Code": "ANSAM", "District": "เซกา", "Subdistrict": "ซาง", "EnodeB ID": 411468.0 }, "geometry": { "type": "Point", "coordinates": [ 103.95089, 17.8746 ] } },
{ "type": "Feature", "properties": { "Province": "สิงห์บุรี", "Region": "CR", "AWN Site Code": "ANSIG", "District": "เมืองสิงห์บุรี", "Subdistrict": "บางกระบือ", "EnodeB ID": 241486.0 }, "geometry": { "type": "Point", "coordinates": [ 100.38277, 14.90906 ] } },
{ "type": "Feature", "properties": { "Province": "ภูเก็ต", "Region": "SR", "AWN Site Code": "ANSRM", "District": "เมืองภูเก็ต", "Subdistrict": "เกาะแก้ว", "EnodeB ID": 320004.0 }, "geometry": { "type": "Point", "coordinates": [ 98.380747, 7.962474 ] } },
{ "type": "Feature", "properties": { "Province": "ภูเก็ต", "Region": "SR", "AWN Site Code": "ANSVM", "District": "กะทู้", "Subdistrict": "ป่าตอง", "EnodeB ID": 320156.0 }, "geometry": { "type": "Point", "coordinates": [ 98.288167, 7.873313 ] } },
{ "type": "Feature", "properties": { "Province": "อุดรธานี", "Region": "NER", "AWN Site Code": "ANWSM", "District": "หนองวัวซอ", "Subdistrict": "หนองวัวซอ", "EnodeB ID": 430086.0 }, "geometry": { "type": "Point", "coordinates": [ 102.60452, 17.27509 ] } },
{ "type": "Feature", "properties": { "Province": "พังงา", "Region": "SR", "AWN Site Code": "AOBLM", "District": "เกาะยาว", "Subdistrict": "พรุใน", "EnodeB ID": 325106.0 }, "geometry": { "type": "Point", "coordinates": [ 98.58038, 7.922309 ] } },
{ "type": "Feature", "properties": { "Province": "ลพบุรี", "Region": "CR", "AWN Site Code": "AOCLM", "District": "เมืองลพบุรี", "Subdistrict": "เขาพระงาม", "EnodeB ID": 220936.0 }, "geometry": { "type": "Point", "coordinates": [ 100.64137, 14.87948 ] } },
{ "type": "Feature", "properties": { "Province": "นครปฐม", "Region": "CR", "AWN Site Code": "AOITM", "District": "เมืองนครปฐม", "Subdistrict": "นครปฐม", "EnodeB ID": 210072.0 }, "geometry": { "type": "Point", "coordinates": [ 100.05985, 13.837809 ] } },
{ "type": "Feature", "properties": { "Province": "กระบี่", "Region": "SR", "AWN Site Code": "AONGM", "District": "เมืองกระบี่", "Subdistrict": "อ่าวนาง", "EnodeB ID": 310002.0 }, "geometry": { "type": "Point", "coordinates": [ 98.811347, 8.050373 ] } },
{ "type": "Feature", "properties": { "Province": "ประจวบคีรีขันธ์", "Region": "CR", "AWN Site Code": "AONIM", "District": "เมืองประจวบคีรีขันธ์", "Subdistrict": "อ่าวน้อย", "EnodeB ID": 220724.0 }, "geometry": { "type": "Point", "coordinates": [ 99.81042, 11.8581 ] } },
{ "type": "Feature", "properties": { "Province": "พังงา", "Region": "SR", "AWN Site Code": "AOPNG", "District": "เมืองพังงา", "Subdistrict": "ตากแดด", "EnodeB ID": 325258.0 }, "geometry": { "type": "Point", "coordinates": [ 98.501869, 8.408231 ] } },
{ "type": "Feature", "properties": { "Province": "กระบี่", "Region": "SR", "AWN Site Code": "AOPNM", "District": "เมืองกระบี่", "Subdistrict": "อ่าวนาง", "EnodeB ID": 310003.0 }, "geometry": { "type": "Point", "coordinates": [ 98.819238, 8.034243 ] } },
{ "type": "Feature", "properties": { "Province": "ภูเก็ต", "Region": "SR", "AWN Site Code": "AOPOR", "District": "ถลาง", "Subdistrict": "ป่าคลอก", "EnodeB ID": 320176.0 }, "geometry": { "type": "Point", "coordinates": [ 98.429992, 8.067489 ] } },
{ "type": "Feature", "properties": { "Province": "ภูเก็ต", "Region": "SR", "AWN Site Code": "AOTKM", "District": "ถลาง", "Subdistrict": "ไม้ขาว", "EnodeB ID": 320177.0 }, "geometry": { "type": "Point", "coordinates": [ 98.335721, 8.161884 ] } },
{ "type": "Feature", "properties": { "Province": "ภูเก็ต", "Region": "SR", "AWN Site Code": "AOYOM", "District": "เมืองภูเก็ต", "Subdistrict": "วิชิต", "EnodeB ID": 320005.0 }, "geometry": { "type": "Point", "coordinates": [ 98.38884, 7.812188 ] } },
{ "type": "Feature", "properties": { "Province": "ปทุมธานี", "Region": "BKK", "AWN Site Code": "AP44M", "District": "คลองหลวง", "Subdistrict": "คลองหนึ่ง", "EnodeB ID": 656077.0 }, "geometry": { "type": "Point", "coordinates": [ 100.61044, 14.092731 ] } },
{ "type": "Feature", "properties": { "Province": "นนทบุรี", "Region": "BKK", "AWN Site Code": "APA4M", "District": "บางกรวย", "Subdistrict": "บางคูเวียง", "EnodeB ID": 662000.0 }, "geometry": { "type": "Point", "coordinates": [ 100.409031, 13.815009 ] } },
{ "type": "Feature", "properties": { "Province": "สกลนคร", "Region": "NER", "AWN Site Code": "APANM", "District": "โพนนาแก้ว", "Subdistrict": "บ้านแป้น", "EnodeB ID": 410097.0 }, "geometry": { "type": "Point", "coordinates": [ 104.22198, 17.19794 ] } },
{ "type": "Feature", "properties": { "Province": "บุรีรัมย์", "Region": "NER", "AWN Site Code": "APAOM", "District": "พุทไธสง", "Subdistrict": "บ้านเป้า", "EnodeB ID": 414074.0 }, "geometry": { "type": "Point", "coordinates": [ 102.91124, 15.60954 ] } },
{ "type": "Feature", "properties": { "Province": "ขอนแก่น", "Region": "NER", "AWN Site Code": "APAPM", "District": "เมืองขอนแก่น", "Subdistrict": "ในเมือง", "EnodeB ID": 410430.0 }, "geometry": { "type": "Point", "coordinates": [ 102.83307, 16.41444 ] } },
{ "type": "Feature", "properties": { "Province": "สุรินทร์", "Region": "NER", "AWN Site Code": "APBCT", "District": "บัวเชด", "Subdistrict": "อาโพน", "EnodeB ID": 412028.0 }, "geometry": { "type": "Point", "coordinates": [ 103.92472, 14.49537 ] } },
{ "type": "Feature", "properties": { "Province": "กรุงเทพมหานคร", "Region": "BKK", "AWN Site Code": "APGAM", "District": "ดินแดง", "Subdistrict": "ดินแดง", "EnodeB ID": 612002.0 }, "geometry": { "type": "Point", "coordinates": [ 100.559413, 13.756965 ] } },
{ "type": "Feature", "properties": { "Province": "นครพนม", "Region": "NER", "AWN Site Code": "APHOM", "District": "ศรีสงคราม", "Subdistrict": "โพนสว่าง", "EnodeB ID": 431039.0 }, "geometry": { "type": "Point", "coordinates": [ 104.17535, 17.53085 ] } },
{ "type": "Feature", "properties": { "Province": "ปทุมธานี", "Region": "BKK", "AWN Site Code": "APJMM", "District": "เมืองปทุมธานี", "Subdistrict": "หลักหก", "EnodeB ID": 632000.0 }, "geometry": { "type": "Point", "coordinates": [ 100.587707, 13.967149 ] } },
{ "type": "Feature", "properties": { "Province": "อุบลราชธานี", "Region": "NER", "AWN Site Code": "APKAM", "District": "เขมราฐ", "Subdistrict": "หนองสิม", "EnodeB ID": 412029.0 }, "geometry": { "type": "Point", "coordinates": [ 105.02565, 16.03819 ] } },
{ "type": "Feature", "properties": { "Province": "น่าน", "Region": "NR", "AWN Site Code": "APKIM", "District": "สันติสุข", "Subdistrict": "ป่าแลวหลวง", "EnodeB ID": 155102.0 }, "geometry": { "type": "Point", "coordinates": [ 100.928581, 18.935626 ] } },
{ "type": "Feature", "properties": { "Province": "พระนครศรีอยุธยา", "Region": "CR", "AWN Site Code": "APLHW", "District": "พระนครศรีอยุธยา", "Subdistrict": "คลองสวนพลู", "EnodeB ID": 211075.0 }, "geometry": { "type": "Point", "coordinates": [ 100.612151, 14.329494 ] } },
{ "type": "Feature", "properties": { "Province": "อุบลราชธานี", "Region": "NER", "AWN Site Code": "APMGM", "District": "เขมราฐ", "Subdistrict": "เขมราฐ", "EnodeB ID": 413522.0 }, "geometry": { "type": "Point", "coordinates": [ 105.13585, 16.05388 ] } },
{ "type": "Feature", "properties": { "Province": "ร้อยเอ็ด", "Region": "NER", "AWN Site Code": "APMPL", "District": "เมืองร้อยเอ็ด", "Subdistrict": "เหนือเมือง", "EnodeB ID": 411254.0 }, "geometry": { "type": "Point", "coordinates": [ 103.67179, 16.06294 ] } },
{ "type": "Feature", "properties": { "Province": "สมุทรปราการ", "Region": "BKK", "AWN Site Code": "APNDM", "District": "บางพลี", "Subdistrict": "บางพลีใหญ่", "EnodeB ID": 648000.0 }, "geometry": { "type": "Point", "coordinates": [ 100.67676, 13.61875 ] } },
{ "type": "Feature", "properties": { "Province": "ตราด", "Region": "Non-EEC", "AWN Site Code": "APNGM", "District": "เขาสมิง", "Subdistrict": "ท่าโสม", "EnodeB ID": 590705.0 }, "geometry": { "type": "Point", "coordinates": [ 102.28716, 12.28305 ] } },
{ "type": "Feature", "properties": { "Province": "สุรินทร์", "Region": "NER", "AWN Site Code": "APONM", "District": "บัวเชด", "Subdistrict": "อาโพน", "EnodeB ID": 413367.0 }, "geometry": { "type": "Point", "coordinates": [ 103.98666, 14.47729 ] } },
{ "type": "Feature", "properties": { "Province": "ตราด", "Region": "Non-EEC", "AWN Site Code": "APROM", "District": "เกาะกูด", "Subdistrict": "เกาะกูด", "EnodeB ID": 591468.0 }, "geometry": { "type": "Point", "coordinates": [ 102.57014, 11.59584 ] } },
{ "type": "Feature", "properties": { "Province": "นนทบุรี", "Region": "BKK", "AWN Site Code": "APSNM", "District": "ไทรน้อย", "Subdistrict": "ไทรน้อย", "EnodeB ID": 676000.0 }, "geometry": { "type": "Point", "coordinates": [ 100.31491, 13.980085 ] } },
{ "type": "Feature", "properties": { "Province": "กรุงเทพมหานคร", "Region": "BKK", "AWN Site Code": "APSTM", "District": "ดุสิต", "Subdistrict": "ดุสิต", "EnodeB ID": 609001.0 }, "geometry": { "type": "Point", "coordinates": [ 100.51059, 13.77154 ] } },
{ "type": "Feature", "properties": { "Province": "หนองคาย", "Region": "NER", "AWN Site Code": "APTBM", "District": "ท่าบ่อ", "Subdistrict": "ท่าบ่อ", "EnodeB ID": 411469.0 }, "geometry": { "type": "Point", "coordinates": [ 102.5761, 17.84371 ] } },
{ "type": "Feature", "properties": { "Province": "นนทบุรี", "Region": "BKK", "AWN Site Code": "APTNM", "District": "บางกรวย", "Subdistrict": "ปลายบาง", "EnodeB ID": 662081.0 }, "geometry": { "type": "Point", "coordinates": [ 100.399339, 13.816677 ] } },
{ "type": "Feature", "properties": { "Province": "ระยอง", "Region": "EEC", "AWN Site Code": "APTUM", "District": "บ้านฉาง", "Subdistrict": "พลา", "EnodeB ID": 550047.0 }, "geometry": { "type": "Point", "coordinates": [ 100.9973, 12.67562 ] } },
{ "type": "Feature", "properties": { "Province": "สุรินทร์", "Region": "NER", "AWN Site Code": "APUDM", "District": "โนนนารายณ์", "Subdistrict": "คำผง", "EnodeB ID": 413066.0 }, "geometry": { "type": "Point", "coordinates": [ 103.96015, 15.18509 ] } },
{ "type": "Feature", "properties": { "Province": "ระยอง", "Region": "EEC", "AWN Site Code": "APWCM", "District": "วังจันทร์", "Subdistrict": "ชุมแสง", "EnodeB ID": 550048.0 }, "geometry": { "type": "Point", "coordinates": [ 101.511747, 12.951734 ] } },
{ "type": "Feature", "properties": { "Province": "กรุงเทพมหานคร", "Region": "BKK", "AWN Site Code": "AR37M", "District": "บางกอกน้อย", "Subdistrict": "อรุณอมรินทร์", "EnodeB ID": 635000.0 }, "geometry": { "type": "Point", "coordinates": [ 100.48265, 13.76409 ] } },
{ "type": "Feature", "properties": { "Province": "กรุงเทพมหานคร", "Region": "BKK", "AWN Site Code": "ARE1M", "District": "พญาไท", "Subdistrict": "สามเสนใน", "EnodeB ID": 611001.0 }, "geometry": { "type": "Point", "coordinates": [ 100.54463, 13.78195 ] } },
{ "type": "Feature", "properties": { "Province": "นนทบุรี", "Region": "BKK", "AWN Site Code": "AREYM", "District": "ปากเกร็ด", "Subdistrict": "บ้านใหม่", "EnodeB ID": 659000.0 }, "geometry": { "type": "Point", "coordinates": [ 100.545709, 13.947517 ] } },
{ "type": "Feature", "properties": { "Province": "ศรีสะเกษ", "Region": "NER", "AWN Site Code": "ARGKH", "District": "ขุนหาญ", "Subdistrict": "พราน", "EnodeB ID": 412688.0 }, "geometry": { "type": "Point", "coordinates": [ 104.46169, 14.62356 ] } },
{ "type": "Feature", "properties": { "Province": "กรุงเทพมหานคร", "Region": "BKK", "AWN Site Code": "ARI4M", "District": "พญาไท", "Subdistrict": "สามเสนใน", "EnodeB ID": 611002.0 }, "geometry": { "type": "Point", "coordinates": [ 100.541164, 13.781444 ] } },
{ "type": "Feature", "properties": { "Province": "ภูเก็ต", "Region": "SR", "AWN Site Code": "ARMSM", "District": "ถลาง", "Subdistrict": "สาคู", "EnodeB ID": 320180.0 }, "geometry": { "type": "Point", "coordinates": [ 98.28958, 8.080085 ] } },
{ "type": "Feature", "properties": { "Province": "เชียงใหม่", "Region": "NR", "AWN Site Code": "ARNTM", "District": "เชียงดาว", "Subdistrict": "เมืองนะ", "EnodeB ID": 150557.0 }, "geometry": { "type": "Point", "coordinates": [ 98.967985, 19.738737 ] } },
{ "type": "Feature", "properties": { "Province": "กรุงเทพมหานคร", "Region": "BKK", "AWN Site Code": "ARSPM", "District": "พญาไท", "Subdistrict": "สามเสนใน", "EnodeB ID": 607001.0 }, "geometry": { "type": "Point", "coordinates": [ 100.535716, 13.776763 ] } },
{ "type": "Feature", "properties": { "Province": "กาฬสินธุ์", "Region": "NER", "AWN Site Code": "ARUAM", "District": "ยางตลาด", "Subdistrict": "นาเชือก", "EnodeB ID": 430630.0 }, "geometry": { "type": "Point", "coordinates": [ 103.40996, 16.59537 ] } },
{ "type": "Feature", "properties": { "Province": "กรุงเทพมหานคร", "Region": "BKK", "AWN Site Code": "ARWGM", "District": "ราชเทวี", "Subdistrict": "ถนนพญาไท", "EnodeB ID": 606001.0 }, "geometry": { "type": "Point", "coordinates": [ 100.540206, 13.751375 ] } },
{ "type": "Feature", "properties": { "Province": "ราชบุรี", "Region": "CR", "AWN Site Code": "ARYHM", "District": "เมืองราชบุรี", "Subdistrict": "หน้าเมือง", "EnodeB ID": 240302.0 }, "geometry": { "type": "Point", "coordinates": [ 99.82191, 13.53751 ] } },
{ "type": "Feature", "properties": { "Province": "พระนครศรีอยุธยา", "Region": "CR", "AWN Site Code": "ARYIK", "District": "นครหลวง", "Subdistrict": "ท่าช้าง", "EnodeB ID": 211043.0 }, "geometry": { "type": "Point", "coordinates": [ 100.650789, 14.499291 ] } },
{ "type": "Feature", "properties": { "Province": "นนทบุรี", "Region": "BKK", "AWN Site Code": "ARYPM", "District": "บางกรวย", "Subdistrict": "บางคูเวียง", "EnodeB ID": 662047.0 }, "geometry": { "type": "Point", "coordinates": [ 100.416407, 13.808644 ] } },
{ "type": "Feature", "properties": { "Province": "กรุงเทพมหานคร", "Region": "BKK", "AWN Site Code": "AS20M", "District": "บางเขน", "Subdistrict": "ท่าแร้ง", "EnodeB ID": 654000.0 }, "geometry": { "type": "Point", "coordinates": [ 100.63594, 13.88517 ] } },
{ "type": "Feature", "properties": { "Province": "บุรีรัมย์", "Region": "NER", "AWN Site Code": "ASAOM", "District": "ห้วยราช", "Subdistrict": "ตาเสา", "EnodeB ID": 412030.0 }, "geometry": { "type": "Point", "coordinates": [ 103.28122, 15.10041 ] } },
{ "type": "Feature", "properties": { "Province": "ชัยภูมิ", "Region": "NER", "AWN Site Code": "ASATM", "District": "คอนสวรรค์", "Subdistrict": "โนนสะอาด", "EnodeB ID": 412031.0 }, "geometry": { "type": "Point", "coordinates": [ 102.25106, 15.8117 ] } },
{ "type": "Feature", "properties": { "Province": "เชียงใหม่", "Region": "NR", "AWN Site Code": "ASBCM", "District": "เมืองเชียงใหม่", "Subdistrict": "สุเทพ", "EnodeB ID": 159377.0 }, "geometry": { "type": "Point", "coordinates": [ 98.96652, 18.794041 ] } },
{ "type": "Feature", "properties": { "Province": "กรุงเทพมหานคร", "Region": "BKK", "AWN Site Code": "ASC2M", "District": "ราชเทวี", "Subdistrict": "ถนนพญาไท", "EnodeB ID": 607004.0 }, "geometry": { "type": "Point", "coordinates": [ 100.538747, 13.763787 ] } },
{ "type": "Feature", "properties": { "Province": "กรุงเทพมหานคร", "Region": "BKK", "AWN Site Code": "ASCCM", "District": "สาทร", "Subdistrict": "ยานนาวา", "EnodeB ID": 603001.0 }, "geometry": { "type": "Point", "coordinates": [ 100.525338, 13.716768 ] } },
{ "type": "Feature", "properties": { "Province": "กรุงเทพมหานคร", "Region": "BKK", "AWN Site Code": "ASCDM", "District": "พญาไท", "Subdistrict": "สามเสนใน", "EnodeB ID": 607006.0 }, "geometry": { "type": "Point", "coordinates": [ 100.540715, 13.766164 ] } },
{ "type": "Feature", "properties": { "Province": "กรุงเทพมหานคร", "Region": "BKK", "AWN Site Code": "ASCPM", "District": "ราชเทวี", "Subdistrict": "ถนนเพชรบุรี", "EnodeB ID": 602000.0 }, "geometry": { "type": "Point", "coordinates": [ 100.531324, 13.752237 ] } },
{ "type": "Feature", "properties": { "Province": "สมุทรปราการ", "Region": "BKK", "AWN Site Code": "ASCSM", "District": "เมืองสมุทรปราการ", "Subdistrict": "บางเมืองใหม่", "EnodeB ID": 647002.0 }, "geometry": { "type": "Point", "coordinates": [ 100.605958, 13.62841 ] } },
{ "type": "Feature", "properties": { "Province": "หนองบัวลำภู", "Region": "NER", "AWN Site Code": "ASFNK", "District": "นากลาง", "Subdistrict": "ฝั่งแดง", "EnodeB ID": 431769.0 }, "geometry": { "type": "Point", "coordinates": [ 102.25668, 17.28389 ] } },
{ "type": "Feature", "properties": { "Province": "อุบลราชธานี", "Region": "NER", "AWN Site Code": "ASILM", "District": "พิบูลมังสาหาร", "Subdistrict": "อ่างศิลา", "EnodeB ID": 412032.0 }, "geometry": { "type": "Point", "coordinates": [ 105.27366, 15.05528 ] } },
{ "type": "Feature", "properties": { "Province": "ระยอง", "Region": "EEC", "AWN Site Code": "ASIPM", "District": "เมืองระยอง", "Subdistrict": "ห้วยโป่ง", "EnodeB ID": 551597.0 }, "geometry": { "type": "Point", "coordinates": [ 101.10963, 12.7075 ] } },
{ "type": "Feature", "properties": { "Province": "กรุงเทพมหานคร", "Region": "BKK", "AWN Site Code": "ASITM", "District": "บางคอแหลม", "Subdistrict": "วัดพระยาไกร", "EnodeB ID": 639000.0 }, "geometry": { "type": "Point", "coordinates": [ 100.503375, 13.703661 ] } },
{ "type": "Feature", "properties": { "Province": "ชัยนาท", "Region": "NR", "AWN Site Code": "ASKBM", "District": "สรรคบุรี", "Subdistrict": "แพรกศรีราชา", "EnodeB ID": 117026.0 }, "geometry": { "type": "Point", "coordinates": [ 100.1669, 15.04629 ] } },
{ "type": "Feature", "properties": { "Province": "ชลบุรี", "Region": "EEC", "AWN Site Code": "ASLAM", "District": "เมืองชลบุรี", "Subdistrict": "อ่างศิลา", "EnodeB ID": 551598.0 }, "geometry": { "type": "Point", "coordinates": [ 100.92583, 13.33694 ] } },
{ "type": "Feature", "properties": { "Province": "ตราด", "Region": "Non-EEC", "AWN Site Code": "ASLDM", "District": "เกาะกูด", "Subdistrict": "เกาะกูด", "EnodeB ID": 591246.0 }, "geometry": { "type": "Point", "coordinates": [ 102.57725, 11.69748 ] } },
{ "type": "Feature", "properties": { "Province": "สมุทรปราการ", "Region": "BKK", "AWN Site Code": "ASLKM", "District": "เมืองสมุทรปราการ", "Subdistrict": "บางเมือง", "EnodeB ID": 647003.0 }, "geometry": { "type": "Point", "coordinates": [ 100.60271, 13.603777 ] } },
{ "type": "Feature", "properties": { "Province": "สุราษฎร์ธานี", "Region": "SR", "AWN Site Code": "ASN1M", "District": "ท่าฉาง", "Subdistrict": "คลองไทร", "EnodeB ID": 330250.0 }, "geometry": { "type": "Point", "coordinates": [ 99.137141, 9.182519 ] } },
{ "type": "Feature", "properties": { "Province": "สระแก้ว", "Region": "Non-EEC", "AWN Site Code": "ASPAM", "District": "อรัญประเทศ", "Subdistrict": "อรัญประเทศ", "EnodeB ID": 591599.0 }, "geometry": { "type": "Point", "coordinates": [ 102.498145, 13.689246 ] } },
{ "type": "Feature", "properties": { "Province": "กรุงเทพมหานคร", "Region": "BKK", "AWN Site Code": "ASPBM", "District": "ราชเทวี", "Subdistrict": "มักกะสัน", "EnodeB ID": 612004.0 }, "geometry": { "type": "Point", "coordinates": [ 100.563207, 13.749304 ] } },
{ "type": "Feature", "properties": { "Province": "ตราด", "Region": "Non-EEC", "AWN Site Code": "ASPRM", "District": "เกาะช้าง", "Subdistrict": "เกาะช้าง", "EnodeB ID": 591247.0 }, "geometry": { "type": "Point", "coordinates": [ 102.30855, 12.13849 ] } },
{ "type": "Feature", "properties": { "Province": "กรุงเทพมหานคร", "Region": "BKK", "AWN Site Code": "ASRDM", "District": "วัฒนา", "Subdistrict": "คลองเตยเหนือ", "EnodeB ID": 605082.0 }, "geometry": { "type": "Point", "coordinates": [ 100.562199, 13.742765 ] } },
{ "type": "Feature", "properties": { "Province": "กรุงเทพมหานคร", "Region": "BKK", "AWN Site Code": "ASSKM", "District": "คลองเตย", "Subdistrict": "คลองเตย", "EnodeB ID": 605001.0 }, "geometry": { "type": "Point", "coordinates": [ 100.560862, 13.736311 ] } },
{ "type": "Feature", "properties": { "Province": "ปทุมธานี", "Region": "BKK", "AWN Site Code": "ASTLM", "District": "ลาดหลุมแก้ว", "Subdistrict": "ระแหง", "EnodeB ID": 676002.0 }, "geometry": { "type": "Point", "coordinates": [ 100.430441, 14.044572 ] } },
{ "type": "Feature", "properties": { "Province": "ยโสธร", "Region": "NER", "AWN Site Code": "ASYST", "District": "เมืองยโสธร", "Subdistrict": "สำราญ", "EnodeB ID": 412886.0 }, "geometry": { "type": "Point", "coordinates": [ 104.13106, 15.81558 ] } },
{ "type": "Feature", "properties": { "Province": "ระยอง", "Region": "EEC", "AWN Site Code": "ATBMM", "District": "ปลวกแดง", "Subdistrict": "มาบยางพร", "EnodeB ID": 550059.0 }, "geometry": { "type": "Point", "coordinates": [ 101.118356, 12.983632 ] } },
{ "type": "Feature", "properties": { "Province": "ขอนแก่น", "Region": "NER", "AWN Site Code": "ATBPM", "District": "เมืองขอนแก่น", "Subdistrict": "บ้านเป็ด", "EnodeB ID": 410059.0 }, "geometry": { "type": "Point", "coordinates": [ 102.779003, 16.421302 ] } },
{ "type": "Feature", "properties": { "Province": "ระยอง", "Region": "EEC", "AWN Site Code": "ATCBM", "District": "ปลวกแดง", "Subdistrict": "มาบยางพร", "EnodeB ID": 551600.0 }, "geometry": { "type": "Point", "coordinates": [ 101.0995, 12.99769 ] } },
{ "type": "Feature", "properties": { "Province": "ระยอง", "Region": "EEC", "AWN Site Code": "ATCCM", "District": "ปลวกแดง", "Subdistrict": "มาบยางพร", "EnodeB ID": 550060.0 }, "geometry": { "type": "Point", "coordinates": [ 101.10117, 12.98594 ] } },
{ "type": "Feature", "properties": { "Province": "ระยอง", "Region": "EEC", "AWN Site Code": "ATCEM", "District": "ปลวกแดง", "Subdistrict": "มาบยางพร", "EnodeB ID": 551601.0 }, "geometry": { "type": "Point", "coordinates": [ 101.11627, 12.96324 ] } },
{ "type": "Feature", "properties": { "Province": "ตราด", "Region": "Non-EEC", "AWN Site Code": "ATCHM", "District": "แหลมงอบ", "Subdistrict": "คลองใหญ่", "EnodeB ID": 590432.0 }, "geometry": { "type": "Point", "coordinates": [ 102.31352, 12.19176 ] } },
{ "type": "Feature", "properties": { "Province": "ชลบุรี", "Region": "EEC", "AWN Site Code": "ATCLM", "District": "ศรีราชา", "Subdistrict": "บ่อวิน", "EnodeB ID": 551607.0 }, "geometry": { "type": "Point", "coordinates": [ 101.1115, 12.99882 ] } },
{ "type": "Feature", "properties": { "Province": "ชลบุรี", "Region": "EEC", "AWN Site Code": "ATCWM", "District": "ศรีราชา", "Subdistrict": "บ่อวิน", "EnodeB ID": 551610.0 }, "geometry": { "type": "Point", "coordinates": [ 101.10648, 12.96436 ] } },
{ "type": "Feature", "properties": { "Province": "ชลบุรี", "Region": "EEC", "AWN Site Code": "ATCYM", "District": "ศรีราชา", "Subdistrict": "บ่อวิน", "EnodeB ID": 551611.0 }, "geometry": { "type": "Point", "coordinates": [ 101.096792, 12.94741023 ] } },
{ "type": "Feature", "properties": { "Province": "อ่างทอง", "Region": "CR", "AWN Site Code": "ATG2M", "District": "เมืองอ่างทอง", "Subdistrict": "ป่างิ้ว", "EnodeB ID": 241234.0 }, "geometry": { "type": "Point", "coordinates": [ 100.41244, 14.60537 ] } },
{ "type": "Feature", "properties": { "Province": "กรุงเทพมหานคร", "Region": "BKK", "AWN Site Code": "ATKLM", "District": "ลาดกระบัง", "Subdistrict": "ลาดกระบัง", "EnodeB ID": 650001.0 }, "geometry": { "type": "Point", "coordinates": [ 100.780785, 13.726159 ] } },
{ "type": "Feature", "properties": { "Province": "สุราษฎร์ธานี", "Region": "SR", "AWN Site Code": "ATKNM", "District": "เกาะสมุย", "Subdistrict": "มะเร็ต", "EnodeB ID": 330004.0 }, "geometry": { "type": "Point", "coordinates": [ 100.0637, 9.4735 ] } },
{ "type": "Feature", "properties": { "Province": "ตราด", "Region": "Non-EEC", "AWN Site Code": "ATKOM", "District": "แหลมงอบ", "Subdistrict": "บางปิด", "EnodeB ID": 590433.0 }, "geometry": { "type": "Point", "coordinates": [ 102.2936, 12.21396 ] } },
{ "type": "Feature", "properties": { "Province": "ร้อยเอ็ด", "Region": "NER", "AWN Site Code": "ATMTM", "District": "อาจสามารถ", "Subdistrict": "อาจสามารถ", "EnodeB ID": 430087.0 }, "geometry": { "type": "Point", "coordinates": [ 103.880586, 15.841915 ] } },
{ "type": "Feature", "properties": { "Province": "บุรีรัมย์", "Region": "NER", "AWN Site Code": "ATNGM", "District": "หนองกี่", "Subdistrict": "โคกสว่าง", "EnodeB ID": 412887.0 }, "geometry": { "type": "Point", "coordinates": [ 102.506, 14.76857 ] } },
{ "type": "Feature", "properties": { "Province": "ชุมพร", "Region": "SR", "AWN Site Code": "ATOGM", "District": "ท่าแซะ", "Subdistrict": "ทรัพย์อนันต์", "EnodeB ID": 340003.0 }, "geometry": { "type": "Point", "coordinates": [ 99.2049, 10.7275 ] } },
{ "type": "Feature", "properties": { "Province": "กาฬสินธุ์", "Region": "NER", "AWN Site Code": "ATPSM", "District": "เมืองกาฬสินธุ์", "Subdistrict": "กาฬสินธุ์", "EnodeB ID": 411256.0 }, "geometry": { "type": "Point", "coordinates": [ 103.509756, 16.429418 ] } },
{ "type": "Feature", "properties": { "Province": "ฉะเชิงเทรา", "Region": "EEC", "AWN Site Code": "ATPYM", "District": "แปลงยาว", "Subdistrict": "แปลงยาว", "EnodeB ID": 551613.0 }, "geometry": { "type": "Point", "coordinates": [ 101.33402, 13.57198 ] } },
{ "type": "Feature", "properties": { "Province": "กรุงเทพมหานคร", "Region": "BKK", "AWN Site Code": "ATRKM", "District": "ภาษีเจริญ", "Subdistrict": "บางแวก", "EnodeB ID": 661000.0 }, "geometry": { "type": "Point", "coordinates": [ 100.455726, 13.739265 ] } },
{ "type": "Feature", "properties": { "Province": "ประจวบคีรีขันธ์", "Region": "CR", "AWN Site Code": "ATTBT", "District": "เมืองประจวบคีรีขันธ์", "Subdistrict": "คลองวาฬ", "EnodeB ID": 220825.0 }, "geometry": { "type": "Point", "coordinates": [ 99.777551, 11.740346 ] } },
{ "type": "Feature", "properties": { "Province": "ระนอง", "Region": "SR", "AWN Site Code": "ATTDM", "District": "เมืองระนอง", "Subdistrict": "ปากน้ำ", "EnodeB ID": 345001.0 }, "geometry": { "type": "Point", "coordinates": [ 98.59704, 9.950467 ] } },
{ "type": "Feature", "properties": { "Province": "เชียงใหม่", "Region": "NR", "AWN Site Code": "AUCNM", "District": "เมืองเชียงใหม่", "Subdistrict": "ท่าศาลา", "EnodeB ID": 150009.0 }, "geometry": { "type": "Point", "coordinates": [ 99.028633, 18.766235 ] } },
{ "type": "Feature", "properties": { "Province": "ชลบุรี", "Region": "EEC", "AWN Site Code": "AUSTM", "District": "บางละมุง", "Subdistrict": "ห้วยใหญ่", "EnodeB ID": 550071.0 }, "geometry": { "type": "Point", "coordinates": [ 101.01261, 12.84296 ] } },
{ "type": "Feature", "properties": { "Province": "สมุทรปราการ", "Region": "BKK", "AWN Site Code": "AUT2M", "District": "บางพลี", "Subdistrict": "บางแก้ว", "EnodeB ID": 646001.0 }, "geometry": { "type": "Point", "coordinates": [ 100.684965, 13.650243 ] } },
{ "type": "Feature", "properties": { "Province": "กรุงเทพมหานคร", "Region": "BKK", "AWN Site Code": "AWBMM", "District": "พระนคร", "Subdistrict": "พระบรมมหาราชวัง", "EnodeB ID": 609003.0 }, "geometry": { "type": "Point", "coordinates": [ 100.489349, 13.753673 ] } },
{ "type": "Feature", "properties": { "Province": "กรุงเทพมหานคร", "Region": "BKK", "AWN Site Code": "AWBPM", "District": "ราชเทวี", "Subdistrict": "ทุ่งพญาไท", "EnodeB ID": 607008.0 }, "geometry": { "type": "Point", "coordinates": [ 100.530752, 13.767332 ] } },
{ "type": "Feature", "properties": { "Province": "กรุงเทพมหานคร", "Region": "BKK", "AWN Site Code": "AWBYM", "District": "ราชเทวี", "Subdistrict": "ทุ่งพญาไท", "EnodeB ID": 607009.0 }, "geometry": { "type": "Point", "coordinates": [ 100.533078, 13.760598 ] } },
{ "type": "Feature", "properties": { "Province": "นนทบุรี", "Region": "BKK", "AWN Site Code": "AWPNM", "District": "บางกรวย", "Subdistrict": "ปลายบาง", "EnodeB ID": 662048.0 }, "geometry": { "type": "Point", "coordinates": [ 100.402601, 13.820453 ] } },
{ "type": "Feature", "properties": { "Province": "สุรินทร์", "Region": "NER", "AWN Site Code": "AWPST", "District": "ปราสาท", "Subdistrict": "โคกสะอาด", "EnodeB ID": 412827.0 }, "geometry": { "type": "Point", "coordinates": [ 103.391369, 14.570003 ] } },
{ "type": "Feature", "properties": { "Province": "สุรินทร์", "Region": "NER", "AWN Site Code": "AWSKP", "District": "ศีขรภูมิ", "Subdistrict": "แตล", "EnodeB ID": 412034.0 }, "geometry": { "type": "Point", "coordinates": [ 103.738026, 15.034946 ] } },
{ "type": "Feature", "properties": { "Province": "นราธิวาส", "Region": "SR", "AWN Site Code": "AYAMU", "District": "สุคิริน", "Subdistrict": "เกียร์", "EnodeB ID": 380179.0 }, "geometry": { "type": "Point", "coordinates": [ 101.7809, 5.9833 ] } },
{ "type": "Feature", "properties": { "Province": "อุดรธานี", "Region": "NER", "AWN Site Code": "AYAOM", "District": "วังสามหมอ", "Subdistrict": "บะยาว", "EnodeB ID": 431524.0 }, "geometry": { "type": "Point", "coordinates": [ 103.39021, 17.13475 ] } },
{ "type": "Feature", "properties": { "Province": "พระนครศรีอยุธยา", "Region": "CR", "AWN Site Code": "AYBCM", "District": "พระนครศรีอยุธยา", "Subdistrict": "ท่าวาสุกรี", "EnodeB ID": 210937.0 }, "geometry": { "type": "Point", "coordinates": [ 100.548413, 14.356779 ] } },
{ "type": "Feature", "properties": { "Province": "นนทบุรี", "Region": "BKK", "AWN Site Code": "AYPSM", "District": "บางกรวย", "Subdistrict": "มหาสวัสดิ์", "EnodeB ID": 662001.0 }, "geometry": { "type": "Point", "coordinates": [ 100.42567, 13.81369 ] } },
{ "type": "Feature", "properties": { "Province": "ภูเก็ต", "Region": "SR", "AWN Site Code": "AYRAM", "District": "กะทู้", "Subdistrict": "กมลา", "EnodeB ID": 320182.0 }, "geometry": { "type": "Point", "coordinates": [ 98.263508, 7.943158 ] } },
{ "type": "Feature", "properties": { "Province": "พระนครศรีอยุธยา", "Region": "CR", "AWN Site Code": "AYRUM", "District": "พระนครศรีอยุธยา", "Subdistrict": "ประตูชัย", "EnodeB ID": 211019.0 }, "geometry": { "type": "Point", "coordinates": [ 100.564242, 14.349205 ] } },
{ "type": "Feature", "properties": { "Province": "พระนครศรีอยุธยา", "Region": "CR", "AWN Site Code": "AYSTM", "District": "พระนครศรีอยุธยา", "Subdistrict": "ไผ่ลิง", "EnodeB ID": 210942.0 }, "geometry": { "type": "Point", "coordinates": [ 100.595157, 14.351631 ] } },
{ "type": "Feature", "properties": { "Province": "สมุทรปราการ", "Region": "BKK", "AWN Site Code": "B592M", "District": "เมืองสมุทรปราการ", "Subdistrict": "ท้ายบ้านใหม่", "EnodeB ID": 669003.0 }, "geometry": { "type": "Point", "coordinates": [ 100.620389, 13.552112 ] } },
{ "type": "Feature", "properties": { "Province": "กรุงเทพมหานคร", "Region": "BKK", "AWN Site Code": "B5S3M", "District": "บางบอน", "Subdistrict": "บางบอน", "EnodeB ID": 677000.0 }, "geometry": { "type": "Point", "coordinates": [ 100.3633, 13.6452 ] } },
{ "type": "Feature", "properties": { "Province": "สมุทรปราการ", "Region": "BKK", "AWN Site Code": "B912M", "District": "เมืองสมุทรปราการ", "Subdistrict": "บางปูใหม่", "EnodeB ID": 669004.0 }, "geometry": { "type": "Point", "coordinates": [ 100.669753, 13.530645 ] } },
{ "type": "Feature", "properties": { "Province": "สมุทรปราการ", "Region": "BKK", "AWN Site Code": "B913M", "District": "เมืองสมุทรปราการ", "Subdistrict": "บางปูใหม่", "EnodeB ID": 669005.0 }, "geometry": { "type": "Point", "coordinates": [ 100.665361, 13.520808 ] } },
{ "type": "Feature", "properties": { "Province": "พระนครศรีอยุธยา", "Region": "CR", "AWN Site Code": "BAAAM", "District": "มหาราช", "Subdistrict": "บ้านนา", "EnodeB ID": 211021.0 }, "geometry": { "type": "Point", "coordinates": [ 100.502054, 14.614242 ] } },
{ "type": "Feature", "properties": { "Province": "ชัยภูมิ", "Region": "NER", "AWN Site Code": "BAAHM", "District": "เกษตรสมบูรณ์", "Subdistrict": "บ้านหัน", "EnodeB ID": 413067.0 }, "geometry": { "type": "Point", "coordinates": [ 102.05036, 16.32403 ] } },
{ "type": "Feature", "properties": { "Province": "สงขลา", "Region": "SR", "AWN Site Code": "BAAIM", "District": "เทพา", "Subdistrict": "วังใหญ่", "EnodeB ID": 350547.0 }, "geometry": { "type": "Point", "coordinates": [ 100.8707, 6.7885 ] } },
{ "type": "Feature", "properties": { "Province": "อุดรธานี", "Region": "NER", "AWN Site Code": "BAAKM", "District": "นายูง", "Subdistrict": "บ้านก้อง", "EnodeB ID": 411470.0 }, "geometry": { "type": "Point", "coordinates": [ 102.10673, 17.80075 ] } },
{ "type": "Feature", "properties": { "Province": "สุราษฎร์ธานี", "Region": "SR", "AWN Site Code": "BAAKN", "District": "เวียงสระ", "Subdistrict": "บ้านส้อง", "EnodeB ID": 331008.0 }, "geometry": { "type": "Point", "coordinates": [ 99.370946, 8.606618 ] } },
{ "type": "Feature", "properties": { "Province": "ลำปาง", "Region": "NR", "AWN Site Code": "BAALM", "District": "เมืองลำปาง", "Subdistrict": "บุญนาคพัฒนา", "EnodeB ID": 152482.0 }, "geometry": { "type": "Point", "coordinates": [ 99.62328, 18.44618 ] } },
{ "type": "Feature", "properties": { "Province": "พระนครศรีอยุธยา", "Region": "CR", "AWN Site Code": "BAAMM", "District": "พระนครศรีอยุธยา", "Subdistrict": "บ้านใหม่", "EnodeB ID": 210945.0 }, "geometry": { "type": "Point", "coordinates": [ 100.513346, 14.401088 ] } },
{ "type": "Feature", "properties": { "Province": "อุทัยธานี", "Region": "NR", "AWN Site Code": "BAAOM", "District": "หนองฉาง", "Subdistrict": "เขาบางแกรก", "EnodeB ID": 161210.0 }, "geometry": { "type": "Point", "coordinates": [ 99.63027, 15.32929 ] } },
{ "type": "Feature", "properties": { "Province": "น่าน", "Region": "NR", "AWN Site Code": "BAAPM", "District": "ปัว", "Subdistrict": "สถาน", "EnodeB ID": 155027.0 }, "geometry": { "type": "Point", "coordinates": [ 100.92554, 19.19747 ] } },
{ "type": "Feature", "properties": { "Province": "สมุทรสาคร", "Region": "CR", "AWN Site Code": "BAASM", "District": "เมืองสมุทรสาคร", "Subdistrict": "บางโทรัด", "EnodeB ID": 250513.0 }, "geometry": { "type": "Point", "coordinates": [ 100.15377, 13.52999 ] } },
{ "type": "Feature", "properties": { "Province": "สงขลา", "Region": "SR", "AWN Site Code": "BAATN", "District": "หาดใหญ่", "Subdistrict": "คลองแห", "EnodeB ID": 350099.0 }, "geometry": { "type": "Point", "coordinates": [ 100.48129, 7.05401 ] } },
{ "type": "Feature", "properties": { "Province": "กรุงเทพมหานคร", "Region": "BKK", "AWN Site Code": "BAB1M", "District": "บางบอน", "Subdistrict": "บางบอน", "EnodeB ID": 667002.0 }, "geometry": { "type": "Point", "coordinates": [ 100.427123, 13.686417 ] } },
{ "type": "Feature", "properties": { "Province": "ชัยภูมิ", "Region": "NER", "AWN Site Code": "BABAM", "District": "เกษตรสมบูรณ์", "Subdistrict": "บ้านบัว", "EnodeB ID": 412035.0 }, "geometry": { "type": "Point", "coordinates": [ 101.92356, 16.231 ] } },
{ "type": "Feature", "properties": { "Province": "ประจวบคีรีขันธ์", "Region": "CR", "AWN Site Code": "BABGM", "District": "เมืองประจวบคีรีขันธ์", "Subdistrict": "เกาะหลัก", "EnodeB ID": 220726.0 }, "geometry": { "type": "Point", "coordinates": [ 99.78572, 11.85899 ] } },
{ "type": "Feature", "properties": { "Province": "ตรัง", "Region": "SR", "AWN Site Code": "BABKM", "District": "ห้วยยอด", "Subdistrict": "ลำภูรา", "EnodeB ID": 365111.0 }, "geometry": { "type": "Point", "coordinates": [ 99.576499, 7.71165 ] } },
{ "type": "Feature", "properties": { "Province": "ยะลา", "Region": "SR", "AWN Site Code": "BABLM", "District": "กาบัง", "Subdistrict": "บาละ", "EnodeB ID": 385167.0 }, "geometry": { "type": "Point", "coordinates": [ 101.03928, 6.38012 ] } },
{ "type": "Feature", "properties": { "Province": "ชลบุรี", "Region": "EEC", "AWN Site Code": "BABMM", "District": "พนัสนิคม", "Subdistrict": "หนองเหียง", "EnodeB ID": 550073.0 }, "geometry": { "type": "Point", "coordinates": [ 101.3433654, 13.4660777 ] } },
{ "type": "Feature", "properties": { "Province": "ยโสธร", "Region": "NER", "AWN Site Code": "BABOM", "District": "เมืองยโสธร", "Subdistrict": "ในเมือง", "EnodeB ID": 410003.0 }, "geometry": { "type": "Point", "coordinates": [ 104.135755, 15.804861 ] } },
{ "type": "Feature", "properties": { "Province": "สระบุรี", "Region": "CR", "AWN Site Code": "BABPM", "District": "บ้านหมอ", "Subdistrict": "หนองบัว", "EnodeB ID": 231389.0 }, "geometry": { "type": "Point", "coordinates": [ 100.77522, 14.62054 ] } },
{ "type": "Feature", "properties": { "Province": "สกลนคร", "Region": "NER", "AWN Site Code": "BABWM", "District": "อากาศอำนวย", "Subdistrict": "บะหว้า", "EnodeB ID": 430183.0 }, "geometry": { "type": "Point", "coordinates": [ 103.98697, 17.48083 ] } },
{ "type": "Feature", "properties": { "Province": "ขอนแก่น", "Region": "NER", "AWN Site Code": "BACDM", "District": "หนองสองห้อง", "Subdistrict": "โนนธาตุ", "EnodeB ID": 430039.0 }, "geometry": { "type": "Point", "coordinates": [ 102.7298, 15.72358 ] } },
{ "type": "Feature", "properties": { "Province": "ชัยนาท", "Region": "NR", "AWN Site Code": "BACEM", "District": "เมืองชัยนาท", "Subdistrict": "นางลือ", "EnodeB ID": 117066.0 }, "geometry": { "type": "Point", "coordinates": [ 100.05558, 15.15908 ] } },
{ "type": "Feature", "properties": { "Province": "ตราด", "Region": "Non-EEC", "AWN Site Code": "BACHM", "District": "เมืองตราด", "Subdistrict": "อ่าวใหญ่", "EnodeB ID": 590434.0 }, "geometry": { "type": "Point", "coordinates": [ 102.55502, 12.06729 ] } },
{ "type": "Feature", "properties": { "Province": "อุตรดิตถ์", "Region": "NR", "AWN Site Code": "BACKM", "District": "เมืองอุตรดิตถ์", "Subdistrict": "น้ำริด", "EnodeB ID": 153103.0 }, "geometry": { "type": "Point", "coordinates": [ 100.10867, 17.71441 ] } },
{ "type": "Feature", "properties": { "Province": "อุดรธานี", "Region": "NER", "AWN Site Code": "BACNM", "District": "บ้านดุง", "Subdistrict": "บ้านจันทน์", "EnodeB ID": 430396.0 }, "geometry": { "type": "Point", "coordinates": [ 103.33424, 17.81807 ] } },
{ "type": "Feature", "properties": { "Province": "เพชรบูรณ์", "Region": "NR", "AWN Site Code": "BACPM", "District": "เมืองเพชรบูรณ์", "Subdistrict": "ชอนไพร", "EnodeB ID": 167111.0 }, "geometry": { "type": "Point", "coordinates": [ 101.14536, 16.3635 ] } },
{ "type": "Feature", "properties": { "Province": "ชัยภูมิ", "Region": "NER", "AWN Site Code": "BADAM", "District": "เกษตรสมบูรณ์", "Subdistrict": "บ้านเดื่อ", "EnodeB ID": 412937.0 }, "geometry": { "type": "Point", "coordinates": [ 101.89158, 16.1155 ] } },
{ "type": "Feature", "properties": { "Province": "อุบลราชธานี", "Region": "NER", "AWN Site Code": "BADCM", "District": "เมืองอุบลราชธานี", "Subdistrict": "ขามใหญ่", "EnodeB ID": 411072.0 }, "geometry": { "type": "Point", "coordinates": [ 104.862783, 15.280133 ] } },
{ "type": "Feature", "properties": { "Province": "นครพนม", "Region": "NER", "AWN Site Code": "BADDM", "District": "นาหว้า", "Subdistrict": "บ้านเสียว", "EnodeB ID": 431450.0 }, "geometry": { "type": "Point", "coordinates": [ 104.08743, 17.54618 ] } },
{ "type": "Feature", "properties": { "Province": "ชัยนาท", "Region": "NR", "AWN Site Code": "BADKM", "District": "หันคา", "Subdistrict": "บ้านเชี่ยน", "EnodeB ID": 117067.0 }, "geometry": { "type": "Point", "coordinates": [ 99.99897, 14.9424 ] } },
{ "type": "Feature", "properties": { "Province": "ยโสธร", "Region": "NER", "AWN Site Code": "BADPM", "District": "มหาชนะชัย", "Subdistrict": "บากเรือ", "EnodeB ID": 413068.0 }, "geometry": { "type": "Point", "coordinates": [ 104.28613, 15.57571 ] } },
{ "type": "Feature", "properties": { "Province": "ศรีสะเกษ", "Region": "NER", "AWN Site Code": "BADUM", "District": "ปรางค์กู่", "Subdistrict": "ดู่", "EnodeB ID": 413069.0 }, "geometry": { "type": "Point", "coordinates": [ 104.0117, 14.7917 ] } },
{ "type": "Feature", "properties": { "Province": "ชัยภูมิ", "Region": "NER", "AWN Site Code": "BAEGM", "District": "แก้งคร้อ", "Subdistrict": "บ้านแก้ง", "EnodeB ID": 412036.0 }, "geometry": { "type": "Point", "coordinates": [ 102.32547, 16.1885 ] } },
{ "type": "Feature", "properties": { "Province": "เชียงใหม่", "Region": "NR", "AWN Site Code": "BAENM", "District": "ดอยเต่า", "Subdistrict": "บ้านแอ่น", "EnodeB ID": 150560.0 }, "geometry": { "type": "Point", "coordinates": [ 98.64388, 18.04555 ] } },
{ "type": "Feature", "properties": { "Province": "หนองคาย", "Region": "NER", "AWN Site Code": "BAFGM", "District": "สระใคร", "Subdistrict": "บ้านฝาง", "EnodeB ID": 431040.0 }, "geometry": { "type": "Point", "coordinates": [ 102.67262, 17.65383 ] } },
{ "type": "Feature", "properties": { "Province": "สมุทรปราการ", "Region": "BKK", "AWN Site Code": "BAGAM", "District": "บางพลี", "Subdistrict": "บางแก้ว", "EnodeB ID": 646002.0 }, "geometry": { "type": "Point", "coordinates": [ 100.68022, 13.63701 ] } },
{ "type": "Feature", "properties": { "Province": "อุดรธานี", "Region": "NER", "AWN Site Code": "BAGKM", "District": "บ้านดุง", "Subdistrict": "บ้านจันทน์", "EnodeB ID": 430397.0 }, "geometry": { "type": "Point", "coordinates": [ 103.39677, 17.86743 ] } },
{ "type": "Feature", "properties": { "Province": "ลพบุรี", "Region": "CR", "AWN Site Code": "BAGLE", "District": "ท่าวุ้ง", "Subdistrict": "บางลี่", "EnodeB ID": 221140.0 }, "geometry": { "type": "Point", "coordinates": [ 100.52201, 14.84795 ] } },
{ "type": "Feature", "properties": { "Province": "สุราษฎร์ธานี", "Region": "SR", "AWN Site Code": "BAGPM", "District": "พระแสง", "Subdistrict": "ไทรโสภา", "EnodeB ID": 330559.0 }, "geometry": { "type": "Point", "coordinates": [ 99.068279, 8.581363 ] } },
{ "type": "Feature", "properties": { "Province": "ชุมพร", "Region": "SR", "AWN Site Code": "BAGSN", "District": "ปะทิว", "Subdistrict": "บางสน", "EnodeB ID": 340191.0 }, "geometry": { "type": "Point", "coordinates": [ 99.298, 10.6459 ] } },
{ "type": "Feature", "properties": { "Province": "นครราชสีมา", "Region": "NER", "AWN Site Code": "BAHBM", "District": "สูงเนิน", "Subdistrict": "โคราช", "EnodeB ID": 410726.0 }, "geometry": { "type": "Point", "coordinates": [ 101.839202, 14.911398 ] } },
{ "type": "Feature", "properties": { "Province": "เชียงใหม่", "Region": "NR", "AWN Site Code": "BAHGM", "District": "แม่อาย", "Subdistrict": "แม่นาวาง", "EnodeB ID": 159333.0 }, "geometry": { "type": "Point", "coordinates": [ 99.34737, 20.00495 ] } },
{ "type": "Feature", "properties": { "Province": "กาฬสินธุ์", "Region": "NER", "AWN Site Code": "BAHKM", "District": "ยางตลาด", "Subdistrict": "หัวนาคำ", "EnodeB ID": 430631.0 }, "geometry": { "type": "Point", "coordinates": [ 103.18506, 16.37657 ] } },
{ "type": "Feature", "properties": { "Province": "สงขลา", "Region": "SR", "AWN Site Code": "BAHOM", "District": "สะบ้าย้อย", "Subdistrict": "บาโหย", "EnodeB ID": 350444.0 }, "geometry": { "type": "Point", "coordinates": [ 100.92671, 6.4344 ] } },
{ "type": "Feature", "properties": { "Province": "สกลนคร", "Region": "NER", "AWN Site Code": "BAHTM", "District": "คำตากล้า", "Subdistrict": "แพด", "EnodeB ID": 430004.0 }, "geometry": { "type": "Point", "coordinates": [ 103.82948, 17.76355 ] } },
{ "type": "Feature", "properties": { "Province": "กรุงเทพมหานคร", "Region": "BKK", "AWN Site Code": "BAIMM", "District": "วัฒนา", "Subdistrict": "คลองเตยเหนือ", "EnodeB ID": 605002.0 }, "geometry": { "type": "Point", "coordinates": [ 100.554714, 13.744266 ] } },
{ "type": "Feature", "properties": { "Province": "ชุมพร", "Region": "SR", "AWN Site Code": "BAJPR", "District": "เมืองชุมพร", "Subdistrict": "วังใหม่", "EnodeB ID": 340073.0 }, "geometry": { "type": "Point", "coordinates": [ 98.911311, 10.492328 ] } },
{ "type": "Feature", "properties": { "Province": "ชัยนาท", "Region": "NR", "AWN Site Code": "BAKCM", "District": "เนินขาม", "Subdistrict": "กะบกเตี้ย", "EnodeB ID": 117027.0 }, "geometry": { "type": "Point", "coordinates": [ 99.80518, 15.00792 ] } },
{ "type": "Feature", "properties": { "Province": "พิษณุโลก", "Region": "NR", "AWN Site Code": "BAKGM", "District": "เมืองพิษณุโลก", "Subdistrict": "บ้านกร่าง", "EnodeB ID": 165003.0 }, "geometry": { "type": "Point", "coordinates": [ 100.1926, 16.8766 ] } },
{ "type": "Feature", "properties": { "Province": "ราชบุรี", "Region": "CR", "AWN Site Code": "BAKHA", "District": "บ้านคา", "Subdistrict": "บ้านคา", "EnodeB ID": 240092.0 }, "geometry": { "type": "Point", "coordinates": [ 99.40892, 13.43556 ] } },
{ "type": "Feature", "properties": { "Province": "เลย", "Region": "NER", "AWN Site Code": "BAKHM", "District": "ปากชม", "Subdistrict": "ปากชม", "EnodeB ID": 430981.0 }, "geometry": { "type": "Point", "coordinates": [ 101.88702, 17.96233 ] } },
{ "type": "Feature", "properties": { "Province": "ขอนแก่น", "Region": "NER", "AWN Site Code": "BAKKM", "District": "กระนวน", "Subdistrict": "หัวนาคำ", "EnodeB ID": 430451.0 }, "geometry": { "type": "Point", "coordinates": [ 103.09598, 16.79456 ] } },
{ "type": "Feature", "properties": { "Province": "ลำพูน", "Region": "NR", "AWN Site Code": "BAKLM", "District": "เมืองลำพูน", "Subdistrict": "บ้านกลาง", "EnodeB ID": 151214.0 }, "geometry": { "type": "Point", "coordinates": [ 99.05995, 18.55882 ] } },
{ "type": "Feature", "properties": { "Province": "กระบี่", "Region": "SR", "AWN Site Code": "BAKNM", "District": "เกาะลันตา", "Subdistrict": "เกาะลันตาใหญ่", "EnodeB ID": 310006.0 }, "geometry": { "type": "Point", "coordinates": [ 99.052603, 7.545662 ] } },
{ "type": "Feature", "properties": { "Province": "ขอนแก่น", "Region": "NER", "AWN Site Code": "BAKOM", "District": "เมืองขอนแก่น", "Subdistrict": "บ้านเป็ด", "EnodeB ID": 410431.0 }, "geometry": { "type": "Point", "coordinates": [ 102.801044, 16.422509 ] } },
{ "type": "Feature", "properties": { "Province": "นครสวรรค์", "Region": "NR", "AWN Site Code": "BAKRM", "District": "บรรพตพิสัย", "Subdistrict": "หนองกรด", "EnodeB ID": 160520.0 }, "geometry": { "type": "Point", "coordinates": [ 100.12011, 15.96778 ] } },
{ "type": "Feature", "properties": { "Province": "ปราจีนบุรี", "Region": "Non-EEC", "AWN Site Code": "BAKSM", "District": "ศรีมหาโพธิ", "Subdistrict": "ศรีมหาโพธิ", "EnodeB ID": 590050.0 }, "geometry": { "type": "Point", "coordinates": [ 101.55044, 13.89232 ] } },
{ "type": "Feature", "properties": { "Province": "สกลนคร", "Region": "NER", "AWN Site Code": "BAKTM", "District": "อากาศอำนวย", "Subdistrict": "อากาศ", "EnodeB ID": 430001.0 }, "geometry": { "type": "Point", "coordinates": [ 103.98762, 17.5988 ] } },
{ "type": "Feature", "properties": { "Province": "ชัยนาท", "Region": "NR", "AWN Site Code": "BAKYM", "District": "เมืองชัยนาท", "Subdistrict": "บ้านกล้วย", "EnodeB ID": 117001.0 }, "geometry": { "type": "Point", "coordinates": [ 100.140773, 15.168835 ] } },
{ "type": "Feature", "properties": { "Province": "นครพนม", "Region": "NER", "AWN Site Code": "BALAM", "District": "ศรีสงคราม", "Subdistrict": "นาคำ", "EnodeB ID": 432630.0 }, "geometry": { "type": "Point", "coordinates": [ 104.33304, 17.60114 ] } },
{ "type": "Feature", "properties": { "Province": "พังงา", "Region": "SR", "AWN Site Code": "BALEM", "District": "กะปง", "Subdistrict": "เหล", "EnodeB ID": 325143.0 }, "geometry": { "type": "Point", "coordinates": [ 98.427345, 8.78536 ] } },
{ "type": "Feature", "properties": { "Province": "นครปฐม", "Region": "CR", "AWN Site Code": "BALGM", "District": "ดอนตูม", "Subdistrict": "บ้านหลวง", "EnodeB ID": 210301.0 }, "geometry": { "type": "Point", "coordinates": [ 100.149475, 13.917629 ] } },
{ "type": "Feature", "properties": { "Province": "ระนอง", "Region": "SR", "AWN Site Code": "BALIM", "District": "กระบุรี", "Subdistrict": "มะมุ", "EnodeB ID": 345112.0 }, "geometry": { "type": "Point", "coordinates": [ 98.815182, 10.489567 ] } },
{ "type": "Feature", "properties": { "Province": "สุโขทัย", "Region": "NR", "AWN Site Code": "BALMM", "District": "เมืองสุโขทัย", "Subdistrict": "บ้านหลุม", "EnodeB ID": 164063.0 }, "geometry": { "type": "Point", "coordinates": [ 99.87438, 16.99624 ] } },
{ "type": "Feature", "properties": { "Province": "อุดรธานี", "Region": "NER", "AWN Site Code": "BALOM", "District": "เพ็ญ", "Subdistrict": "บ้านเหล่า", "EnodeB ID": 431451.0 }, "geometry": { "type": "Point", "coordinates": [ 103.04206, 17.68679 ] } },
{ "type": "Feature", "properties": { "Province": "นนทบุรี", "Region": "BKK", "AWN Site Code": "BALPM", "District": "บางบัวทอง", "Subdistrict": "ลำโพ", "EnodeB ID": 664001.0 }, "geometry": { "type": "Point", "coordinates": [ 100.426309, 13.972469 ] } },
{ "type": "Feature", "properties": { "Province": "กระบี่", "Region": "SR", "AWN Site Code": "BALWM", "District": "ปลายพระยา", "Subdistrict": "คีรีวง", "EnodeB ID": 310167.0 }, "geometry": { "type": "Point", "coordinates": [ 98.854667, 8.449968 ] } },
{ "type": "Feature", "properties": { "Province": "พระนครศรีอยุธยา", "Region": "CR", "AWN Site Code": "BAMAM", "District": "บางไทร", "Subdistrict": "บ้านม้า", "EnodeB ID": 250992.0 }, "geometry": { "type": "Point", "coordinates": [ 100.47323, 14.135946 ] } },
{ "type": "Feature", "properties": { "Province": "สงขลา", "Region": "SR", "AWN Site Code": "BAMEM", "District": "ระโนด", "Subdistrict": "พังยาง", "EnodeB ID": 350548.0 }, "geometry": { "type": "Point", "coordinates": [ 100.35888, 7.72766 ] } },
{ "type": "Feature", "properties": { "Province": "นครราชสีมา", "Region": "NER", "AWN Site Code": "BAMIM", "District": "เมืองนครราชสีมา", "Subdistrict": "บ้านใหม่", "EnodeB ID": 410072.0 }, "geometry": { "type": "Point", "coordinates": [ 102.03646, 14.968467 ] } },
{ "type": "Feature", "properties": { "Province": "นครสวรรค์", "Region": "NR", "AWN Site Code": "BAMKM", "District": "เมืองนครสวรรค์", "Subdistrict": "บ้านมะเกลือ", "EnodeB ID": 160226.0 }, "geometry": { "type": "Point", "coordinates": [ 100.123083, 15.802972 ] } },
{ "type": "Feature", "properties": { "Province": "เชียงราย", "Region": "NR", "AWN Site Code": "BAMLM", "District": "เทิง", "Subdistrict": "แม่ลอย", "EnodeB ID": 157224.0 }, "geometry": { "type": "Point", "coordinates": [ 100.04433, 19.57452 ] } },
{ "type": "Feature", "properties": { "Province": "ชุมพร", "Region": "SR", "AWN Site Code": "BAMMG", "District": "ทุ่งตะโก", "Subdistrict": "ปากตะโก", "EnodeB ID": 340208.0 }, "geometry": { "type": "Point", "coordinates": [ 99.153206, 10.147298 ] } },
{ "type": "Feature", "properties": { "Province": "เชียงใหม่", "Region": "NR", "AWN Site Code": "BAMNM", "District": "สันกำแพง", "Subdistrict": "สันกลาง", "EnodeB ID": 150010.0 }, "geometry": { "type": "Point", "coordinates": [ 99.04651, 18.798 ] } },
{ "type": "Feature", "properties": { "Province": "สุราษฎร์ธานี", "Region": "SR", "AWN Site Code": "BAMTM", "District": "ไชยา", "Subdistrict": "โมถ่าย", "EnodeB ID": 330560.0 }, "geometry": { "type": "Point", "coordinates": [ 99.08493, 9.400872 ] } },
{ "type": "Feature", "properties": { "Province": "นครนายก", "Region": "Non-EEC", "AWN Site Code": "BANAM", "District": "บ้านนา", "Subdistrict": "บ้านนา", "EnodeB ID": 590051.0 }, "geometry": { "type": "Point", "coordinates": [ 101.07298, 14.26144 ] } },
{ "type": "Feature", "properties": { "Province": "เชียงใหม่", "Region": "NR", "AWN Site Code": "BANBM", "District": "พร้าว", "Subdistrict": "แม่แวน", "EnodeB ID": 150565.0 }, "geometry": { "type": "Point", "coordinates": [ 99.18895, 19.29713 ] } },
{ "type": "Feature", "properties": { "Province": "พะเยา", "Region": "NR", "AWN Site Code": "BANCM", "District": "จุน", "Subdistrict": "ลอ", "EnodeB ID": 156217.0 }, "geometry": { "type": "Point", "coordinates": [ 100.10955, 19.44896 ] } },
{ "type": "Feature", "properties": { "Province": "ปัตตานี", "Region": "SR", "AWN Site Code": "BANDM", "District": "ปะนาเระ", "Subdistrict": "ท่าน้ำ", "EnodeB ID": 370410.0 }, "geometry": { "type": "Point", "coordinates": [ 101.5291, 6.7573 ] } },
{ "type": "Feature", "properties": { "Province": "ลพบุรี", "Region": "CR", "AWN Site Code": "BANDN", "District": "โคกสำโรง", "Subdistrict": "ดงมะรุม", "EnodeB ID": 221295.0 }, "geometry": { "type": "Point", "coordinates": [ 100.88276, 15.11435 ] } },
{ "type": "Feature", "properties": { "Province": "สุราษฎร์ธานี", "Region": "SR", "AWN Site Code": "BANHM", "District": "คีรีรัฐนิคม", "Subdistrict": "น้ำหัก", "EnodeB ID": 330561.0 }, "geometry": { "type": "Point", "coordinates": [ 98.974514, 9.112842 ] } },
{ "type": "Feature", "properties": { "Province": "สุพรรณบุรี", "Region": "CR", "AWN Site Code": "BANHN", "District": "อู่ทอง", "Subdistrict": "หนองโอ่ง", "EnodeB ID": 241733.0 }, "geometry": { "type": "Point", "coordinates": [ 99.858655, 14.413499 ] } },
{ "type": "Feature", "properties": { "Province": "สงขลา", "Region": "SR", "AWN Site Code": "BANIM", "District": "สะบ้าย้อย", "Subdistrict": "จะแหน", "EnodeB ID": 350448.0 }, "geometry": { "type": "Point", "coordinates": [ 100.9624, 6.5326 ] } },
{ "type": "Feature", "properties": { "Province": "ประจวบคีรีขันธ์", "Region": "CR", "AWN Site Code": "BANKD", "District": "บางสะพาน", "Subdistrict": "ร่อนทอง", "EnodeB ID": 220807.0 }, "geometry": { "type": "Point", "coordinates": [ 99.44974, 11.29079 ] } },
{ "type": "Feature", "properties": { "Province": "สุราษฎร์ธานี", "Region": "SR", "AWN Site Code": "BANKY", "District": "พระแสง", "Subdistrict": "สินปุน", "EnodeB ID": 330994.0 }, "geometry": { "type": "Point", "coordinates": [ 99.255886, 8.436037 ] } },
{ "type": "Feature", "properties": { "Province": "พะเยา", "Region": "NR", "AWN Site Code": "BANLM", "District": "ดอกคำใต้", "Subdistrict": "หนองหล่ม", "EnodeB ID": 156206.0 }, "geometry": { "type": "Point", "coordinates": [ 100.06557, 19.03667 ] } },
{ "type": "Feature", "properties": { "Province": "กระบี่", "Region": "SR", "AWN Site Code": "BANLP", "District": "เมืองกระบี่", "Subdistrict": "หนองทะเล", "EnodeB ID": 310011.0 }, "geometry": { "type": "Point", "coordinates": [ 98.74468, 8.07816 ] } },
{ "type": "Feature", "properties": { "Province": "ยะลา", "Region": "SR", "AWN Site Code": "BANMI", "District": "เบตง", "Subdistrict": "อัยเยอร์เวง", "EnodeB ID": 385105.0 }, "geometry": { "type": "Point", "coordinates": [ 101.194946, 5.963852 ] } },
{ "type": "Feature", "properties": { "Province": "กระบี่", "Region": "SR", "AWN Site Code": "BANMM", "District": "เมืองกระบี่", "Subdistrict": "ไสไทย", "EnodeB ID": 310007.0 }, "geometry": { "type": "Point", "coordinates": [ 98.858464, 8.054563 ] } },
{ "type": "Feature", "properties": { "Province": "สุพรรณบุรี", "Region": "CR", "AWN Site Code": "BANNB", "District": "เมืองสุพรรณบุรี", "Subdistrict": "สระแก้ว", "EnodeB ID": 241760.0 }, "geometry": { "type": "Point", "coordinates": [ 99.98727, 14.47775 ] } },
{ "type": "Feature", "properties": { "Province": "สุพรรณบุรี", "Region": "CR", "AWN Site Code": "BANNS", "District": "หนองหญ้าไซ", "Subdistrict": "หนองหญ้าไซ", "EnodeB ID": 241171.0 }, "geometry": { "type": "Point", "coordinates": [ 99.86329, 14.73616 ] } },
{ "type": "Feature", "properties": { "Province": "ร้อยเอ็ด", "Region": "NER", "AWN Site Code": "BANPK", "District": "หนองพอก", "Subdistrict": "กกโพธิ์", "EnodeB ID": 431399.0 }, "geometry": { "type": "Point", "coordinates": [ 104.14288, 16.33876 ] } },
{ "type": "Feature", "properties": { "Province": "เชียงใหม่", "Region": "NR", "AWN Site Code": "BANPM", "District": "แม่อาย", "Subdistrict": "บ้านหลวง", "EnodeB ID": 159208.0 }, "geometry": { "type": "Point", "coordinates": [ 99.31884, 19.88153 ] } },
{ "type": "Feature", "properties": { "Province": "สุพรรณบุรี", "Region": "CR", "AWN Site Code": "BANPU", "District": "ศรีประจันต์", "Subdistrict": "บ้านกร่าง", "EnodeB ID": 241727.0 }, "geometry": { "type": "Point", "coordinates": [ 100.12356, 14.65099 ] } },
{ "type": "Feature", "properties": { "Province": "เพชรบูรณ์", "Region": "NR", "AWN Site Code": "BANRM", "District": "วิเชียรบุรี", "Subdistrict": "น้ำร้อน", "EnodeB ID": 167206.0 }, "geometry": { "type": "Point", "coordinates": [ 101.27882, 15.69491 ] } },
{ "type": "Feature", "properties": { "Province": "สุพรรณบุรี", "Region": "CR", "AWN Site Code": "BANSC", "District": "ศรีประจันต์", "Subdistrict": "ดอนปรู", "EnodeB ID": 241761.0 }, "geometry": { "type": "Point", "coordinates": [ 100.176, 14.6752 ] } },
{ "type": "Feature", "properties": { "Province": "กาญจนบุรี", "Region": "CR", "AWN Site Code": "BANSK", "District": "ท่ามะกา", "Subdistrict": "อุโลกสี่หมื่น", "EnodeB ID": 241070.0 }, "geometry": { "type": "Point", "coordinates": [ 99.80721, 14.08148 ] } },
{ "type": "Feature", "properties": { "Province": "กระบี่", "Region": "SR", "AWN Site Code": "BANSM", "District": "เมืองกระบี่", "Subdistrict": "เขาทอง", "EnodeB ID": 310074.0 }, "geometry": { "type": "Point", "coordinates": [ 98.80164, 8.15146 ] } },
{ "type": "Feature", "properties": { "Province": "กาญจนบุรี", "Region": "CR", "AWN Site Code": "BANTN", "District": "พนมทวน", "Subdistrict": "พนมทวน", "EnodeB ID": 230509.0 }, "geometry": { "type": "Point", "coordinates": [ 99.6959, 14.12779 ] } },
{ "type": "Feature", "properties": { "Province": "สุพรรณบุรี", "Region": "CR", "AWN Site Code": "BANTT", "District": "เดิมบางนางบวช", "Subdistrict": "ปากน้ำ", "EnodeB ID": 241751.0 }, "geometry": { "type": "Point", "coordinates": [ 100.04267, 14.95371 ] } },
{ "type": "Feature", "properties": { "Province": "ศรีสะเกษ", "Region": "NER", "AWN Site Code": "BANWM", "District": "กันทรารมย์", "Subdistrict": "หนองแวง", "EnodeB ID": 412597.0 }, "geometry": { "type": "Point", "coordinates": [ 104.65677, 15.18448 ] } },
{ "type": "Feature", "properties": { "Province": "ประจวบคีรีขันธ์", "Region": "CR", "AWN Site Code": "BANWY", "District": "ปราณบุรี", "Subdistrict": "เขาน้อย", "EnodeB ID": 220437.0 }, "geometry": { "type": "Point", "coordinates": [ 99.9105, 12.4342 ] } },
{ "type": "Feature", "properties": { "Province": "สุราษฎร์ธานี", "Region": "SR", "AWN Site Code": "BANYG", "District": "คีรีรัฐนิคม", "Subdistrict": "บ้านยาง", "EnodeB ID": 330675.0 }, "geometry": { "type": "Point", "coordinates": [ 98.978517, 9.036529 ] } },
{ "type": "Feature", "properties": { "Province": "สุรินทร์", "Region": "NER", "AWN Site Code": "BANYM", "District": "สังขะ", "Subdistrict": "กระเทียม", "EnodeB ID": 412497.0 }, "geometry": { "type": "Point", "coordinates": [ 103.68503, 14.62802 ] } },
{ "type": "Feature", "properties": { "Province": "นครศรีธรรมราช", "Region": "SR", "AWN Site Code": "BAOBN", "District": "ปากพนัง", "Subdistrict": "ท่าพญา", "EnodeB ID": 300527.0 }, "geometry": { "type": "Point", "coordinates": [ 100.249917, 8.271489 ] } },
{ "type": "Feature", "properties": { "Province": "กระบี่", "Region": "SR", "AWN Site Code": "BAOGM", "District": "เมืองกระบี่", "Subdistrict": "อ่าวนาง", "EnodeB ID": 310008.0 }, "geometry": { "type": "Point", "coordinates": [ 98.83777, 8.03747 ] } },
{ "type": "Feature", "properties": { "Province": "เชียงใหม่", "Region": "NR", "AWN Site Code": "BAOLM", "District": "แม่ออน", "Subdistrict": "ออนเหนือ", "EnodeB ID": 150566.0 }, "geometry": { "type": "Point", "coordinates": [ 99.251753, 18.785564 ] } },
{ "type": "Feature", "properties": { "Province": "ลำปาง", "Region": "NR", "AWN Site Code": "BAONM", "District": "งาว", "Subdistrict": "บ้านอ้อน", "EnodeB ID": 152275.0 }, "geometry": { "type": "Point", "coordinates": [ 99.92596, 18.76073 ] } },
{ "type": "Feature", "properties": { "Province": "นครปฐม", "Region": "CR", "AWN Site Code": "BAOPY", "District": "เมืองนครปฐม", "Subdistrict": "โพรงมะเดื่อ", "EnodeB ID": 210177.0 }, "geometry": { "type": "Point", "coordinates": [ 99.96577, 13.88635 ] } },
{ "type": "Feature", "properties": { "Province": "ราชบุรี", "Region": "CR", "AWN Site Code": "BAP1M", "District": "บางแพ", "Subdistrict": "บางแพ", "EnodeB ID": 240303.0 }, "geometry": { "type": "Point", "coordinates": [ 99.9333, 13.68599 ] } },
{ "type": "Feature", "properties": { "Province": "พิษณุโลก", "Region": "NR", "AWN Site Code": "BAPAM", "District": "เมืองพิษณุโลก", "Subdistrict": "บ้านป่า", "EnodeB ID": 165173.0 }, "geometry": { "type": "Point", "coordinates": [ 100.349333, 16.935889 ] } },
{ "type": "Feature", "properties": { "Province": "สงขลา", "Region": "SR", "AWN Site Code": "BAPDM", "District": "นาทวี", "Subdistrict": "คลองทราย", "EnodeB ID": 350449.0 }, "geometry": { "type": "Point", "coordinates": [ 100.591265, 6.741315 ] } },
{ "type": "Feature", "properties": { "Province": "ชลบุรี", "Region": "EEC", "AWN Site Code": "BAPHM", "District": "บางละมุง", "Subdistrict": "ห้วยใหญ่", "EnodeB ID": 551619.0 }, "geometry": { "type": "Point", "coordinates": [ 100.920273, 12.82214 ] } },
{ "type": "Feature", "properties": { "Province": "ลำพูน", "Region": "NR", "AWN Site Code": "BAPIM", "District": "ลี้", "Subdistrict": "ป่าไผ่", "EnodeB ID": 151049.0 }, "geometry": { "type": "Point", "coordinates": [ 98.92235, 17.876567 ] } },
{ "type": "Feature", "properties": { "Province": "กำแพงเพชร", "Region": "NR", "AWN Site Code": "BAPKM", "District": "ขาณุวรลักษบุรี", "Subdistrict": "ปางมะค่า", "EnodeB ID": 162095.0 }, "geometry": { "type": "Point", "coordinates": [ 99.47949, 15.92611 ] } },
{ "type": "Feature", "properties": { "Province": "อุตรดิตถ์", "Region": "NR", "AWN Site Code": "BAPLM", "District": "ลับแล", "Subdistrict": "ไผ่ล้อม", "EnodeB ID": 153104.0 }, "geometry": { "type": "Point", "coordinates": [ 100.07057, 17.58834 ] } },
{ "type": "Feature", "properties": { "Province": "นครสวรรค์", "Region": "NR", "AWN Site Code": "BAPMM", "District": "โกรกพระ", "Subdistrict": "บางประมุง", "EnodeB ID": 160227.0 }, "geometry": { "type": "Point", "coordinates": [ 100.02951, 15.63048 ] } },
{ "type": "Feature", "properties": { "Province": "สงขลา", "Region": "SR", "AWN Site Code": "BAPNM", "District": "สะบ้าย้อย", "Subdistrict": "เปียน", "EnodeB ID": 350450.0 }, "geometry": { "type": "Point", "coordinates": [ 101.01844, 6.63604 ] } },
{ "type": "Feature", "properties": { "Province": "ลำปาง", "Region": "NR", "AWN Site Code": "BAPRM", "District": "งาว", "Subdistrict": "ปงเตา", "EnodeB ID": 152206.0 }, "geometry": { "type": "Point", "coordinates": [ 99.9495, 18.8264 ] } },
{ "type": "Feature", "properties": { "Province": "นครราชสีมา", "Region": "NER", "AWN Site Code": "BAPSM", "District": "โนนสูง", "Subdistrict": "ธารปราสาท", "EnodeB ID": 411145.0 }, "geometry": { "type": "Point", "coordinates": [ 102.373079, 15.233691 ] } },
{ "type": "Feature", "properties": { "Province": "สมุทรปราการ", "Region": "BKK", "AWN Site Code": "BAR1M", "District": "เมืองสมุทรปราการ", "Subdistrict": "สำโรงเหนือ", "EnodeB ID": 644002.0 }, "geometry": { "type": "Point", "coordinates": [ 100.606219, 13.658932 ] } },
{ "type": "Feature", "properties": { "Province": "สมุทรปราการ", "Region": "BKK", "AWN Site Code": "BAR9M", "District": "เมืองสมุทรปราการ", "Subdistrict": "สำโรงเหนือ", "EnodeB ID": 644003.0 }, "geometry": { "type": "Point", "coordinates": [ 100.609424, 13.656437 ] } },
{ "type": "Feature", "properties": { "Province": "สตูล", "Region": "SR", "AWN Site Code": "BARAM", "District": "ละงู", "Subdistrict": "ปากน้ำ", "EnodeB ID": 355001.0 }, "geometry": { "type": "Point", "coordinates": [ 99.73613, 6.850291 ] } },
{ "type": "Feature", "properties": { "Province": "อุทัยธานี", "Region": "NR", "AWN Site Code": "BARIM", "District": "บ้านไร่", "Subdistrict": "บ้านไร่", "EnodeB ID": 161196.0 }, "geometry": { "type": "Point", "coordinates": [ 99.52414, 15.08615 ] } },
{ "type": "Feature", "properties": { "Province": "นครปฐม", "Region": "CR", "AWN Site Code": "BARKM", "District": "นครชัยศรี", "Subdistrict": "บางระกำ", "EnodeB ID": 210001.0 }, "geometry": { "type": "Point", "coordinates": [ 100.129643, 13.773901 ] } },
{ "type": "Feature", "properties": { "Province": "ตรัง", "Region": "SR", "AWN Site Code": "BASAM", "District": "ห้วยยอด", "Subdistrict": "เขากอบ", "EnodeB ID": 365073.0 }, "geometry": { "type": "Point", "coordinates": [ 99.55957, 7.79607 ] } },
{ "type": "Feature", "properties": { "Province": "บุรีรัมย์", "Region": "NER", "AWN Site Code": "BASCM", "District": "กระสัง", "Subdistrict": "สองชั้น", "EnodeB ID": 412422.0 }, "geometry": { "type": "Point", "coordinates": [ 103.22639, 14.88482 ] } },
{ "type": "Feature", "properties": { "Province": "สตูล", "Region": "SR", "AWN Site Code": "BASKM", "District": "ท่าแพ", "Subdistrict": "สาคร", "EnodeB ID": 355061.0 }, "geometry": { "type": "Point", "coordinates": [ 99.89647, 6.75397 ] } },
{ "type": "Feature", "properties": { "Province": "นครราชสีมา", "Region": "NER", "AWN Site Code": "BASLM", "District": "พิมาย", "Subdistrict": "ดงใหญ่", "EnodeB ID": 413500.0 }, "geometry": { "type": "Point", "coordinates": [ 102.63257, 15.36588 ] } },
{ "type": "Feature", "properties": { "Province": "ลำปาง", "Region": "NR", "AWN Site Code": "BASMM", "District": "เมืองลำปาง", "Subdistrict": "บ้านแลง", "EnodeB ID": 152276.0 }, "geometry": { "type": "Point", "coordinates": [ 99.63814, 18.51538 ] } },
{ "type": "Feature", "properties": { "Province": "เลย", "Region": "NER", "AWN Site Code": "BASPM", "District": "ผาขาว", "Subdistrict": "ผาขาว", "EnodeB ID": 431018.0 }, "geometry": { "type": "Point", "coordinates": [ 101.97114, 17.03712 ] } },
{ "type": "Feature", "properties": { "Province": "ยโสธร", "Region": "NER", "AWN Site Code": "BASRM", "District": "เมืองยโสธร", "Subdistrict": "สำราญ", "EnodeB ID": 410656.0 }, "geometry": { "type": "Point", "coordinates": [ 104.121332, 15.823348 ] } },
{ "type": "Feature", "properties": { "Province": "อำนาจเจริญ", "Region": "NER", "AWN Site Code": "BASSM", "District": "ปทุมราชวงศา", "Subdistrict": "ลือ", "EnodeB ID": 412038.0 }, "geometry": { "type": "Point", "coordinates": [ 104.85737, 15.76556 ] } },
{ "type": "Feature", "properties": { "Province": "นครพนม", "Region": "NER", "AWN Site Code": "BASTM", "District": "เมืองนครพนม", "Subdistrict": "หนองแสง", "EnodeB ID": 431201.0 }, "geometry": { "type": "Point", "coordinates": [ 104.760326, 17.432997 ] } },
{ "type": "Feature", "properties": { "Province": "พิษณุโลก", "Region": "NR", "AWN Site Code": "BASWM", "District": "วังทอง", "Subdistrict": "บ้านกลาง", "EnodeB ID": 165299.0 }, "geometry": { "type": "Point", "coordinates": [ 100.578682, 16.965397 ] } },
{ "type": "Feature", "properties": { "Province": "นครราชสีมา", "Region": "NER", "AWN Site Code": "BATAM", "District": "สีดา", "Subdistrict": "โนนประดู่", "EnodeB ID": 410842.0 }, "geometry": { "type": "Point", "coordinates": [ 102.51653, 15.488429 ] } },
{ "type": "Feature", "properties": { "Province": "ยโสธร", "Region": "NER", "AWN Site Code": "BATBM", "District": "กุดชุม", "Subdistrict": "คำน้ำสร้าง", "EnodeB ID": 412039.0 }, "geometry": { "type": "Point", "coordinates": [ 104.2668, 16.08844 ] } },
{ "type": "Feature", "properties": { "Province": "เชียงใหม่", "Region": "NR", "AWN Site Code": "BATGM", "District": "ดอยเต่า", "Subdistrict": "บงตัน", "EnodeB ID": 150567.0 }, "geometry": { "type": "Point", "coordinates": [ 98.670833, 18.0175 ] } },
{ "type": "Feature", "properties": { "Province": "สงขลา", "Region": "SR", "AWN Site Code": "BATHM", "District": "สทิงพระ", "Subdistrict": "ท่าหิน", "EnodeB ID": 350549.0 }, "geometry": { "type": "Point", "coordinates": [ 100.420587, 7.395847 ] } },
{ "type": "Feature", "properties": { "Province": "อุดรธานี", "Region": "NER", "AWN Site Code": "BATIM", "District": "บ้านผือ", "Subdistrict": "เมืองพาน", "EnodeB ID": 431959.0 }, "geometry": { "type": "Point", "coordinates": [ 102.39081, 17.71405 ] } },
{ "type": "Feature", "properties": { "Province": "นครสวรรค์", "Region": "NR", "AWN Site Code": "BATKM", "District": "บรรพตพิสัย", "Subdistrict": "ตาขีด", "EnodeB ID": 160537.0 }, "geometry": { "type": "Point", "coordinates": [ 99.883105, 15.985275 ] } },
{ "type": "Feature", "properties": { "Province": "อุทัยธานี", "Region": "NR", "AWN Site Code": "BATLM", "District": "บ้านไร่", "Subdistrict": "ทัพหลวง", "EnodeB ID": 161189.0 }, "geometry": { "type": "Point", "coordinates": [ 99.61988, 15.0202 ] } },
{ "type": "Feature", "properties": { "Province": "กำแพงเพชร", "Region": "NR", "AWN Site Code": "BATMM", "District": "พรานกระต่าย", "Subdistrict": "ท่าไม้", "EnodeB ID": 162203.0 }, "geometry": { "type": "Point", "coordinates": [ 99.45278, 16.72543 ] } },
{ "type": "Feature", "properties": { "Province": "น่าน", "Region": "NR", "AWN Site Code": "BATNM", "District": "ท่าวังผา", "Subdistrict": "จอมพระ", "EnodeB ID": 155103.0 }, "geometry": { "type": "Point", "coordinates": [ 100.877943, 19.081772 ] } },
{ "type": "Feature", "properties": { "Province": "สงขลา", "Region": "SR", "AWN Site Code": "BATOM", "District": "สะเดา", "Subdistrict": "ปาดังเบซาร์", "EnodeB ID": 350451.0 }, "geometry": { "type": "Point", "coordinates": [ 100.25388, 6.72153 ] } },
{ "type": "Feature", "properties": { "Province": "นครศรีธรรมราช", "Region": "SR", "AWN Site Code": "BATPM", "District": "ทุ่งใหญ่", "Subdistrict": "ท่ายาง", "EnodeB ID": 300549.0 }, "geometry": { "type": "Point", "coordinates": [ 99.3394, 8.2767 ] } },
{ "type": "Feature", "properties": { "Province": "อุดรธานี", "Region": "NER", "AWN Site Code": "BATTM", "District": "เพ็ญ", "Subdistrict": "บ้านธาตุ", "EnodeB ID": 430421.0 }, "geometry": { "type": "Point", "coordinates": [ 102.85052, 17.70208 ] } },
{ "type": "Feature", "properties": { "Province": "กรุงเทพมหานคร", "Region": "BKK", "AWN Site Code": "BAU1M", "District": "บางพลัด", "Subdistrict": "บางอ้อ", "EnodeB ID": 635001.0 }, "geometry": { "type": "Point", "coordinates": [ 100.506509, 13.796097 ] } },
{ "type": "Feature", "properties": { "Province": "อุทัยธานี", "Region": "NR", "AWN Site Code": "BAUMM", "District": "บ้านไร่", "Subdistrict": "บ้านไร่", "EnodeB ID": 161154.0 }, "geometry": { "type": "Point", "coordinates": [ 99.47205, 15.05377 ] } },
{ "type": "Feature", "properties": { "Province": "หนองคาย", "Region": "NER", "AWN Site Code": "BAWAM", "District": "ท่าบ่อ", "Subdistrict": "บ้านว่าน", "EnodeB ID": 430831.0 }, "geometry": { "type": "Point", "coordinates": [ 102.55473, 17.73339 ] } },
{ "type": "Feature", "properties": { "Province": "ตรัง", "Region": "SR", "AWN Site Code": "BAWIM", "District": "หาดสำราญ", "Subdistrict": "บ้าหวี", "EnodeB ID": 365112.0 }, "geometry": { "type": "Point", "coordinates": [ 99.61012, 7.27977 ] } },
{ "type": "Feature", "properties": { "Province": "จันทบุรี", "Region": "Non-EEC", "AWN Site Code": "BAWKM", "District": "แก่งหางแมว", "Subdistrict": "แก่งหางแมว", "EnodeB ID": 590408.0 }, "geometry": { "type": "Point", "coordinates": [ 101.88653, 12.98866 ] } },
{ "type": "Feature", "properties": { "Province": "นครสวรรค์", "Region": "NR", "AWN Site Code": "BAWPM", "District": "เมืองนครสวรรค์", "Subdistrict": "นครสวรรค์ตก", "EnodeB ID": 160090.0 }, "geometry": { "type": "Point", "coordinates": [ 100.07938, 15.69109 ] } },
{ "type": "Feature", "properties": { "Province": "นครนายก", "Region": "Non-EEC", "AWN Site Code": "BAYIM", "District": "เมืองนครนายก", "Subdistrict": "บ้านใหญ่", "EnodeB ID": 590289.0 }, "geometry": { "type": "Point", "coordinates": [ 101.22613, 14.2146 ] } },
{ "type": "Feature", "properties": { "Province": "กรุงเทพมหานคร", "Region": "BKK", "AWN Site Code": "BB31M", "District": "บางแค", "Subdistrict": "บางแค", "EnodeB ID": 667003.0 }, "geometry": { "type": "Point", "coordinates": [ 100.419721, 13.701058 ] } },
{ "type": "Feature", "properties": { "Province": "เพชรบุรี", "Region": "CR", "AWN Site Code": "BBAGM", "District": "ชะอำ", "Subdistrict": "บางเก่า", "EnodeB ID": 220001.0 }, "geometry": { "type": "Point", "coordinates": [ 99.99341, 12.83855 ] } },
{ "type": "Feature", "properties": { "Province": "ยโสธร", "Region": "NER", "AWN Site Code": "BBAKM", "District": "เมืองยโสธร", "Subdistrict": "สำราญ", "EnodeB ID": 410671.0 }, "geometry": { "type": "Point", "coordinates": [ 104.101441, 15.844306 ] } },
{ "type": "Feature", "properties": { "Province": "พระนครศรีอยุธยา", "Region": "CR", "AWN Site Code": "BBAOM", "District": "บางปะอิน", "Subdistrict": "ตลาดเกรียบ", "EnodeB ID": 250993.0 }, "geometry": { "type": "Point", "coordinates": [ 100.534431, 14.261342 ] } },